{"ast":null,"code":"var _jsxFileName = \"C:\\\\Users\\\\Admin\\\\Documents\\\\RacketBuddy\\\\frontend\\\\src\\\\pages\\\\Dashboard.tsx\",\n  _s = $RefreshSig$();\nimport React, { useState, useEffect } from 'react';\nimport { useNavigate } from 'react-router-dom';\nimport { getEvents, registerForEvent, cancelEvent } from '../services/api';\nimport { useAuth } from '../contexts/AuthContext';\nimport EventCard from '../components/EventCard';\nimport { debounce } from 'lodash';\nimport { jsxDEV as _jsxDEV, Fragment as _Fragment } from \"react/jsx-dev-runtime\";\nconst Dashboard = () => {\n  _s();\n  const [events, setEvents] = useState([]);\n  const [loading, setLoading] = useState(true);\n  const [error, setError] = useState(null);\n  const {\n    user\n  } = useAuth();\n  const [toast, setToast] = useState(null);\n  const [selectedEvent, setSelectedEvent] = useState(null);\n  const [expandedSections, setExpandedSections] = useState({\n    upcoming: true,\n    past: false\n  });\n  const [searchCity, setSearchCity] = useState('');\n  const [mileRange, setMileRange] = useState(20);\n  const [searchQuery, setSearchQuery] = useState('');\n  const [searchResults, setSearchResults] = useState([]);\n  const [isSearching, setIsSearching] = useState(false);\n  const [showResults, setShowResults] = useState(false);\n  const [selectedLocation, setSelectedLocation] = useState(null);\n  const navigate = useNavigate();\n  const MAJOR_US_CITIES = [\n  // New York City and Boroughs\n  {\n    name: 'New York',\n    lat: 40.7128,\n    lon: -74.0060\n  }, {\n    name: 'Brooklyn',\n    lat: 40.6782,\n    lon: -73.9442\n  }, {\n    name: 'Queens',\n    lat: 40.7282,\n    lon: -73.7949\n  }, {\n    name: 'Bronx',\n    lat: 40.8448,\n    lon: -73.8648\n  }, {\n    name: 'Manhattan',\n    lat: 40.7831,\n    lon: -73.9712\n  }, {\n    name: 'Staten Island',\n    lat: 40.5795,\n    lon: -74.1502\n  },\n  // Los Angeles Area\n  {\n    name: 'Los Angeles',\n    lat: 34.0522,\n    lon: -118.2437\n  }, {\n    name: 'Hollywood',\n    lat: 34.0928,\n    lon: -118.3287\n  }, {\n    name: 'Santa Monica',\n    lat: 34.0195,\n    lon: -118.4912\n  }, {\n    name: 'Beverly Hills',\n    lat: 34.0736,\n    lon: -118.4004\n  },\n  // Chicago Area\n  {\n    name: 'Chicago',\n    lat: 41.8781,\n    lon: -87.6298\n  }, {\n    name: 'Evanston',\n    lat: 42.0451,\n    lon: -87.6877\n  }, {\n    name: 'Oak Park',\n    lat: 41.8850,\n    lon: -87.7845\n  },\n  // Houston Area\n  {\n    name: 'Houston',\n    lat: 29.7604,\n    lon: -95.3698\n  }, {\n    name: 'Sugar Land',\n    lat: 29.6197,\n    lon: -95.6349\n  }, {\n    name: 'The Woodlands',\n    lat: 30.1658,\n    lon: -95.4612\n  },\n  // Phoenix Area\n  {\n    name: 'Phoenix',\n    lat: 33.4484,\n    lon: -112.0740\n  }, {\n    name: 'Scottsdale',\n    lat: 33.4942,\n    lon: -111.9261\n  }, {\n    name: 'Tempe',\n    lat: 33.4255,\n    lon: -111.9400\n  },\n  // Philadelphia Area\n  {\n    name: 'Philadelphia',\n    lat: 39.9526,\n    lon: -75.1652\n  }, {\n    name: 'Center City',\n    lat: 39.9526,\n    lon: -75.1652\n  }, {\n    name: 'University City',\n    lat: 39.9522,\n    lon: -75.1932\n  },\n  // San Antonio Area\n  {\n    name: 'San Antonio',\n    lat: 29.4241,\n    lon: -98.4936\n  }, {\n    name: 'Alamo Heights',\n    lat: 29.4847,\n    lon: -98.4658\n  },\n  // San Diego Area\n  {\n    name: 'San Diego',\n    lat: 32.7157,\n    lon: -117.1611\n  }, {\n    name: 'La Jolla',\n    lat: 32.8328,\n    lon: -117.2713\n  }, {\n    name: 'Coronado',\n    lat: 32.6859,\n    lon: -117.1831\n  },\n  // Dallas Area\n  {\n    name: 'Dallas',\n    lat: 32.7767,\n    lon: -96.7970\n  }, {\n    name: 'Plano',\n    lat: 33.0198,\n    lon: -96.6989\n  }, {\n    name: 'Irving',\n    lat: 32.8140,\n    lon: -96.9489\n  },\n  // San Jose Area\n  {\n    name: 'San Jose',\n    lat: 37.3382,\n    lon: -121.8863\n  }, {\n    name: 'Palo Alto',\n    lat: 37.4419,\n    lon: -122.1430\n  }, {\n    name: 'Mountain View',\n    lat: 37.3861,\n    lon: -122.0839\n  },\n  // Austin Area\n  {\n    name: 'Austin',\n    lat: 30.2672,\n    lon: -97.7431\n  }, {\n    name: 'Round Rock',\n    lat: 30.5083,\n    lon: -97.6789\n  },\n  // Jacksonville Area\n  {\n    name: 'Jacksonville',\n    lat: 30.3322,\n    lon: -81.6557\n  }, {\n    name: 'Jacksonville Beach',\n    lat: 30.2947,\n    lon: -81.3931\n  },\n  // Fort Worth Area\n  {\n    name: 'Fort Worth',\n    lat: 32.7555,\n    lon: -97.3308\n  }, {\n    name: 'Arlington',\n    lat: 32.7357,\n    lon: -97.1081\n  },\n  // Columbus Area\n  {\n    name: 'Columbus',\n    lat: 39.9612,\n    lon: -82.9988\n  }, {\n    name: 'Dublin',\n    lat: 40.0992,\n    lon: -83.1141\n  },\n  // Charlotte Area\n  {\n    name: 'Charlotte',\n    lat: 35.2271,\n    lon: -80.8431\n  }, {\n    name: 'Ballantyne',\n    lat: 35.0527,\n    lon: -80.8456\n  },\n  // San Francisco Area\n  {\n    name: 'San Francisco',\n    lat: 37.7749,\n    lon: -122.4194\n  }, {\n    name: 'Sausalito',\n    lat: 37.8591,\n    lon: -122.4853\n  }, {\n    name: 'Tiburon',\n    lat: 37.8735,\n    lon: -122.4566\n  },\n  // Indianapolis Area\n  {\n    name: 'Indianapolis',\n    lat: 39.7684,\n    lon: -86.1581\n  }, {\n    name: 'Carmel',\n    lat: 39.9784,\n    lon: -86.1180\n  },\n  // Seattle Area\n  {\n    name: 'Seattle',\n    lat: 47.6062,\n    lon: -122.3321\n  }, {\n    name: 'Bellevue',\n    lat: 47.6101,\n    lon: -122.2015\n  }, {\n    name: 'Kirkland',\n    lat: 47.6769,\n    lon: -122.2060\n  },\n  // Denver Area\n  {\n    name: 'Denver',\n    lat: 39.7392,\n    lon: -104.9903\n  }, {\n    name: 'Boulder',\n    lat: 40.0150,\n    lon: -105.2705\n  }, {\n    name: 'Cherry Creek',\n    lat: 39.7167,\n    lon: -104.9500\n  },\n  // Washington DC Area\n  {\n    name: 'Washington DC',\n    lat: 38.9072,\n    lon: -77.0369\n  }, {\n    name: 'Georgetown',\n    lat: 38.9097,\n    lon: -77.0654\n  }, {\n    name: 'Arlington VA',\n    lat: 38.8816,\n    lon: -77.0910\n  },\n  // Boston Area\n  {\n    name: 'Boston',\n    lat: 42.3601,\n    lon: -71.0589\n  }, {\n    name: 'Cambridge',\n    lat: 42.3736,\n    lon: -71.1097\n  }, {\n    name: 'Brookline',\n    lat: 42.3318,\n    lon: -71.1212\n  },\n  // Rest of major cities\n  {\n    name: 'El Paso',\n    lat: 31.7619,\n    lon: -106.4850\n  }, {\n    name: 'Nashville',\n    lat: 36.1627,\n    lon: -86.7816\n  }, {\n    name: 'Detroit',\n    lat: 42.3314,\n    lon: -83.0458\n  }, {\n    name: 'Portland',\n    lat: 45.5155,\n    lon: -122.6789\n  }, {\n    name: 'Las Vegas',\n    lat: 36.1699,\n    lon: -115.1398\n  }, {\n    name: 'Oklahoma City',\n    lat: 35.4676,\n    lon: -97.5164\n  }, {\n    name: 'Memphis',\n    lat: 35.1495,\n    lon: -90.0490\n  }, {\n    name: 'Louisville',\n    lat: 38.2527,\n    lon: -85.7585\n  }, {\n    name: 'Baltimore',\n    lat: 39.2904,\n    lon: -76.6122\n  }, {\n    name: 'Milwaukee',\n    lat: 43.0389,\n    lon: -87.9065\n  }, {\n    name: 'Albuquerque',\n    lat: 35.0844,\n    lon: -106.6504\n  }, {\n    name: 'Tucson',\n    lat: 32.2226,\n    lon: -110.9747\n  }, {\n    name: 'Fresno',\n    lat: 36.7378,\n    lon: -119.7871\n  }, {\n    name: 'Sacramento',\n    lat: 38.5816,\n    lon: -121.4944\n  }, {\n    name: 'Long Beach',\n    lat: 33.7701,\n    lon: -118.1937\n  }, {\n    name: 'Kansas City',\n    lat: 39.0997,\n    lon: -94.5786\n  }, {\n    name: 'Mesa',\n    lat: 33.4152,\n    lon: -111.8315\n  }, {\n    name: 'Atlanta',\n    lat: 33.7490,\n    lon: -84.3880\n  }, {\n    name: 'Colorado Springs',\n    lat: 38.8339,\n    lon: -104.8214\n  }, {\n    name: 'Miami',\n    lat: 25.7617,\n    lon: -80.1918\n  }, {\n    name: 'Raleigh',\n    lat: 35.7796,\n    lon: -78.6382\n  }, {\n    name: 'Omaha',\n    lat: 41.2565,\n    lon: -95.9345\n  }, {\n    name: 'Minneapolis',\n    lat: 44.9778,\n    lon: -93.2650\n  }, {\n    name: 'Tulsa',\n    lat: 36.1540,\n    lon: -95.9928\n  }, {\n    name: 'Cleveland',\n    lat: 41.4993,\n    lon: -81.6944\n  }, {\n    name: 'Wichita',\n    lat: 37.6872,\n    lon: -97.3301\n  }, {\n    name: 'New Orleans',\n    lat: 29.9511,\n    lon: -90.0715\n  }, {\n    name: 'Bakersfield',\n    lat: 35.3733,\n    lon: -119.0187\n  }, {\n    name: 'Tampa',\n    lat: 27.9506,\n    lon: -82.4572\n  }];\n  useEffect(() => {\n    fetchEvents();\n  }, []);\n\n  // Auto-hide toast after 3 seconds\n  useEffect(() => {\n    if (toast) {\n      const timer = setTimeout(() => {\n        setToast(null);\n      }, 3000);\n      return () => clearTimeout(timer);\n    }\n  }, [toast]);\n  const fetchEvents = async () => {\n    try {\n      const data = await getEvents();\n      // Sort events by date\n      const sortedEvents = data.sort((a, b) => new Date(a.event_date).getTime() - new Date(b.event_date).getTime());\n      setEvents(sortedEvents);\n      setError(null);\n    } catch (err) {\n      console.error('Failed to load events:', err);\n      let errorMsg = 'Failed to load events';\n      if (err.detail) {\n        errorMsg = typeof err.detail === 'string' ? err.detail : JSON.stringify(err.detail);\n      } else if (err.message) {\n        errorMsg = err.message;\n      }\n      setError(errorMsg);\n    } finally {\n      setLoading(false);\n    }\n  };\n  const isRegisteredForEvent = eventId => {\n    var _events$find, _events$find$registra;\n    return ((_events$find = events.find(event => event.id === eventId)) === null || _events$find === void 0 ? void 0 : (_events$find$registra = _events$find.registrations) === null || _events$find$registra === void 0 ? void 0 : _events$find$registra.some(r => r.user_id === (user === null || user === void 0 ? void 0 : user.id))) || false;\n  };\n  const isEventCreator = eventId => {\n    var _events$find2;\n    return ((_events$find2 = events.find(event => event.id === eventId)) === null || _events$find2 === void 0 ? void 0 : _events$find2.organizer_id) === (user === null || user === void 0 ? void 0 : user.id);\n  };\n  const handleCancelEvent = async eventId => {\n    try {\n      await cancelEvent(eventId);\n      fetchEvents();\n    } catch (error) {\n      console.error('Error cancelling event:', error);\n    }\n  };\n  const handleRegister = async eventId => {\n    try {\n      await registerForEvent(eventId);\n      fetchEvents();\n    } catch (error) {\n      console.error('Error registering for event:', error);\n    }\n  };\n  const handleWithdraw = async eventId => {\n    try {\n      await registerForEvent(eventId, true);\n      fetchEvents();\n    } catch (error) {\n      console.error('Error withdrawing from event:', error);\n    }\n  };\n  const handleLocationSelect = location => {\n    setSelectedLocation(location);\n    setSearchQuery(location.display_name);\n    setShowResults(false);\n  };\n  const searchAddress = debounce(async query => {\n    if (!query.trim()) {\n      setSearchResults([]);\n      setShowResults(false);\n      return;\n    }\n    setIsSearching(true);\n    try {\n      const url = `https://cors-anywhere.herokuapp.com/https://nominatim.openstreetmap.org/search?format=json&q=${encodeURIComponent(query)}&countrycodes=us&limit=5`;\n      const response = await fetch(url, {\n        method: 'GET',\n        headers: {\n          'Accept-Language': 'en-US,en;q=0.9',\n          'User-Agent': 'RacketBuddy/1.0',\n          'Accept': 'application/json',\n          'Origin': window.location.origin,\n          'X-Requested-With': 'XMLHttpRequest'\n        }\n      });\n      if (!response.ok) {\n        throw new Error(`HTTP error! status: ${response.status}`);\n      }\n      const data = await response.json();\n      if (data && Array.isArray(data)) {\n        setSearchResults(data);\n        setShowResults(true);\n      } else {\n        setSearchResults([]);\n        setShowResults(false);\n      }\n    } catch (error) {\n      console.error('Error searching address:', error);\n      setSearchResults([]);\n      setShowResults(false);\n    } finally {\n      setIsSearching(false);\n    }\n  }, 300);\n  useEffect(() => {\n    searchAddress(searchQuery);\n  }, [searchQuery]);\n  const toggleSection = section => {\n    setExpandedSections(prev => ({\n      ...prev,\n      [section]: !prev[section]\n    }));\n  };\n  const calculateDistance = (lat1, lon1, lat2, lon2) => {\n    const R = 3959; // Earth's radius in miles\n    const dLat = (lat2 - lat1) * Math.PI / 180;\n    const dLon = (lon2 - lon1) * Math.PI / 180;\n    const a = Math.sin(dLat / 2) * Math.sin(dLat / 2) + Math.cos(lat1 * Math.PI / 180) * Math.cos(lat2 * Math.PI / 180) * Math.sin(dLon / 2) * Math.sin(dLon / 2);\n    const c = 2 * Math.atan2(Math.sqrt(a), Math.sqrt(1 - a));\n    return R * c;\n  };\n  const filterEventsByDistance = events => {\n    if (!selectedLocation) return events;\n    return events.filter(event => {\n      if (!event.latitude || !event.longitude) return false;\n      const distance = calculateDistance(selectedLocation.lat, selectedLocation.lon, event.latitude, event.longitude);\n      return distance <= mileRange;\n    });\n  };\n  const categorizeEvents = () => {\n    const now = new Date();\n    const filteredEvents = filterEventsByDistance(events);\n    return {\n      upcoming: filteredEvents.filter(event => new Date(event.event_date) >= now && !event.is_cancelled),\n      past: filteredEvents.filter(event => new Date(event.event_date) < now && !event.is_cancelled)\n    };\n  };\n  const {\n    upcoming,\n    past\n  } = categorizeEvents();\n  const hasAnyEvents = upcoming.length > 0 || past.length > 0;\n  const renderEventCard = event => {\n    var _event$registrations;\n    return /*#__PURE__*/_jsxDEV(EventCard, {\n      event: event,\n      onRegister: () => handleRegister(event.id),\n      onWithdraw: () => handleWithdraw(event.id),\n      onCancel: () => handleCancelEvent(event.id),\n      isRegistered: (_event$registrations = event.registrations) === null || _event$registrations === void 0 ? void 0 : _event$registrations.some(r => r.user_id === (user === null || user === void 0 ? void 0 : user.id)),\n      isCreator: event.organizer_id === (user === null || user === void 0 ? void 0 : user.id)\n    }, event.id, false, {\n      fileName: _jsxFileName,\n      lineNumber: 323,\n      columnNumber: 7\n    }, this);\n  };\n  const renderEventSection = (title, events, sectionKey) => /*#__PURE__*/_jsxDEV(\"div\", {\n    className: \"mb-8\",\n    children: [/*#__PURE__*/_jsxDEV(\"button\", {\n      onClick: () => toggleSection(sectionKey),\n      className: \"w-full flex justify-between items-center text-2xl font-bold text-gray-900 mb-4 hover:text-[#C4E538] transition-colors\",\n      children: [/*#__PURE__*/_jsxDEV(\"span\", {\n        children: title\n      }, void 0, false, {\n        fileName: _jsxFileName,\n        lineNumber: 341,\n        columnNumber: 9\n      }, this), /*#__PURE__*/_jsxDEV(\"span\", {\n        className: \"text-lg\",\n        children: expandedSections[sectionKey] ? '▼' : '▶'\n      }, void 0, false, {\n        fileName: _jsxFileName,\n        lineNumber: 342,\n        columnNumber: 9\n      }, this)]\n    }, void 0, true, {\n      fileName: _jsxFileName,\n      lineNumber: 337,\n      columnNumber: 7\n    }, this), expandedSections[sectionKey] && events.length > 0 ? /*#__PURE__*/_jsxDEV(\"div\", {\n      className: \"grid grid-cols-1 gap-6 sm:grid-cols-2 lg:grid-cols-3\",\n      children: events.map(renderEventCard)\n    }, void 0, false, {\n      fileName: _jsxFileName,\n      lineNumber: 347,\n      columnNumber: 9\n    }, this) : /*#__PURE__*/_jsxDEV(\"p\", {\n      className: \"text-gray-500 text-center py-4\",\n      children: expandedSections[sectionKey] ? 'No events in this period' : ''\n    }, void 0, false, {\n      fileName: _jsxFileName,\n      lineNumber: 351,\n      columnNumber: 9\n    }, this)]\n  }, void 0, true, {\n    fileName: _jsxFileName,\n    lineNumber: 336,\n    columnNumber: 5\n  }, this);\n  const handleCityChange = e => {\n    const value = e.target.value;\n    setSearchCity(value);\n    if (value) {\n      const filtered = MAJOR_US_CITIES.filter(city => city.name.toLowerCase().includes(value.toLowerCase()));\n      setSearchResults(filtered);\n    } else {\n      setSearchResults([]);\n    }\n  };\n  return /*#__PURE__*/_jsxDEV(\"div\", {\n    className: \"min-h-screen bg-gray-50 py-12 px-4 sm:px-6 lg:px-8\",\n    children: /*#__PURE__*/_jsxDEV(\"div\", {\n      className: \"max-w-7xl mx-auto\",\n      children: [/*#__PURE__*/_jsxDEV(\"div\", {\n        className: \"text-center mb-12\",\n        children: [/*#__PURE__*/_jsxDEV(\"h1\", {\n          className: \"text-4xl font-extrabold text-gray-900 sm:text-5xl sm:tracking-tight lg:text-6xl\",\n          children: \"Find Events\"\n        }, void 0, false, {\n          fileName: _jsxFileName,\n          lineNumber: 376,\n          columnNumber: 11\n        }, this), /*#__PURE__*/_jsxDEV(\"p\", {\n          className: \"mt-5 max-w-xl mx-auto text-xl text-gray-500\",\n          children: selectedLocation ? `Events within ${mileRange} miles of ${selectedLocation.display_name}` : 'Select a location to search for events'\n        }, void 0, false, {\n          fileName: _jsxFileName,\n          lineNumber: 379,\n          columnNumber: 11\n        }, this)]\n      }, void 0, true, {\n        fileName: _jsxFileName,\n        lineNumber: 375,\n        columnNumber: 9\n      }, this), /*#__PURE__*/_jsxDEV(\"div\", {\n        className: \"max-w-3xl mx-auto mb-12 px-4\",\n        children: /*#__PURE__*/_jsxDEV(\"div\", {\n          className: \"flex flex-col sm:flex-row gap-4 justify-center items-center\",\n          children: [/*#__PURE__*/_jsxDEV(\"div\", {\n            className: \"relative flex-1 max-w-xl\",\n            children: [/*#__PURE__*/_jsxDEV(\"input\", {\n              type: \"text\",\n              value: searchQuery,\n              onChange: e => setSearchQuery(e.target.value),\n              placeholder: \"Enter city, state, or zip code\",\n              className: \"w-full px-4 py-3 rounded-lg border border-gray-300 focus:ring-2 focus:ring-blue-500 focus:border-blue-500\"\n            }, void 0, false, {\n              fileName: _jsxFileName,\n              lineNumber: 388,\n              columnNumber: 15\n            }, this), isSearching && /*#__PURE__*/_jsxDEV(\"div\", {\n              className: \"absolute right-3 top-3\",\n              children: /*#__PURE__*/_jsxDEV(\"div\", {\n                className: \"animate-spin rounded-full h-6 w-6 border-b-2 border-blue-500\"\n              }, void 0, false, {\n                fileName: _jsxFileName,\n                lineNumber: 397,\n                columnNumber: 19\n              }, this)\n            }, void 0, false, {\n              fileName: _jsxFileName,\n              lineNumber: 396,\n              columnNumber: 17\n            }, this), showResults && searchResults.length > 0 && /*#__PURE__*/_jsxDEV(\"div\", {\n              className: \"absolute z-10 w-full mt-1 bg-white rounded-md shadow-lg\",\n              children: /*#__PURE__*/_jsxDEV(\"ul\", {\n                className: \"max-h-60 rounded-md py-1 text-base overflow-auto focus:outline-none sm:text-sm\",\n                children: searchResults.map(result => /*#__PURE__*/_jsxDEV(\"li\", {\n                  className: \"cursor-pointer select-none relative py-2 pl-3 pr-9 hover:bg-blue-50\",\n                  onClick: () => handleLocationSelect(result),\n                  children: /*#__PURE__*/_jsxDEV(\"div\", {\n                    className: \"flex items-center\",\n                    children: /*#__PURE__*/_jsxDEV(\"span\", {\n                      className: \"ml-3 truncate\",\n                      children: result.display_name\n                    }, void 0, false, {\n                      fileName: _jsxFileName,\n                      lineNumber: 410,\n                      columnNumber: 27\n                    }, this)\n                  }, void 0, false, {\n                    fileName: _jsxFileName,\n                    lineNumber: 409,\n                    columnNumber: 25\n                  }, this)\n                }, result.place_id, false, {\n                  fileName: _jsxFileName,\n                  lineNumber: 404,\n                  columnNumber: 23\n                }, this))\n              }, void 0, false, {\n                fileName: _jsxFileName,\n                lineNumber: 402,\n                columnNumber: 19\n              }, this)\n            }, void 0, false, {\n              fileName: _jsxFileName,\n              lineNumber: 401,\n              columnNumber: 17\n            }, this)]\n          }, void 0, true, {\n            fileName: _jsxFileName,\n            lineNumber: 387,\n            columnNumber: 13\n          }, this), /*#__PURE__*/_jsxDEV(\"div\", {\n            className: \"flex items-center gap-2 min-w-[200px]\",\n            children: [/*#__PURE__*/_jsxDEV(\"input\", {\n              type: \"range\",\n              min: \"1\",\n              max: \"100\",\n              value: mileRange,\n              onChange: e => setMileRange(Number(e.target.value)),\n              className: \"w-full h-2 bg-gray-200 rounded-lg appearance-none cursor-pointer [&::-webkit-slider-thumb]:appearance-none [&::-webkit-slider-thumb]:w-4 [&::-webkit-slider-thumb]:h-4 [&::-webkit-slider-thumb]:rounded-full [&::-webkit-slider-thumb]:bg-[#C4E538] [&::-webkit-slider-thumb]:cursor-pointer [&::-moz-range-thumb]:w-4 [&::-moz-range-thumb]:h-4 [&::-moz-range-thumb]:rounded-full [&::-moz-range-thumb]:bg-[#C4E538] [&::-moz-range-thumb]:border-0 [&::-moz-range-thumb]:cursor-pointer [&::-moz-range-track]:bg-gray-200 [&::-moz-range-track]:rounded-lg [&::-moz-range-track]:h-2\",\n              style: {\n                background: `linear-gradient(to right, #C4E538 0%, #C4E538 ${(mileRange - 1) * (100 / 99)}%, #E5E7EB ${(mileRange - 1) * (100 / 99)}%, #E5E7EB 100%)`\n              }\n            }, void 0, false, {\n              fileName: _jsxFileName,\n              lineNumber: 419,\n              columnNumber: 15\n            }, this), /*#__PURE__*/_jsxDEV(\"span\", {\n              className: \"text-sm font-medium text-[#C4E538] whitespace-nowrap\",\n              children: [mileRange, \" miles\"]\n            }, void 0, true, {\n              fileName: _jsxFileName,\n              lineNumber: 430,\n              columnNumber: 15\n            }, this)]\n          }, void 0, true, {\n            fileName: _jsxFileName,\n            lineNumber: 418,\n            columnNumber: 13\n          }, this)]\n        }, void 0, true, {\n          fileName: _jsxFileName,\n          lineNumber: 386,\n          columnNumber: 11\n        }, this)\n      }, void 0, false, {\n        fileName: _jsxFileName,\n        lineNumber: 385,\n        columnNumber: 9\n      }, this), selectedLocation ? /*#__PURE__*/_jsxDEV(_Fragment, {\n        children: hasAnyEvents ? /*#__PURE__*/_jsxDEV(\"div\", {\n          className: \"space-y-12\",\n          children: [upcoming.length > 0 && /*#__PURE__*/_jsxDEV(\"div\", {\n            children: [/*#__PURE__*/_jsxDEV(\"h2\", {\n              className: \"text-2xl font-bold text-gray-900 mb-6\",\n              children: \"Upcoming Events\"\n            }, void 0, false, {\n              fileName: _jsxFileName,\n              lineNumber: 442,\n              columnNumber: 21\n            }, this), /*#__PURE__*/_jsxDEV(\"div\", {\n              className: \"grid gap-6 md:grid-cols-2 lg:grid-cols-3\",\n              children: upcoming.map(event => {\n                var _event$registrations2;\n                return /*#__PURE__*/_jsxDEV(EventCard, {\n                  event: event,\n                  onRegister: () => handleRegister(event.id),\n                  onWithdraw: () => handleWithdraw(event.id),\n                  onCancel: () => handleCancelEvent(event.id),\n                  isRegistered: (_event$registrations2 = event.registrations) === null || _event$registrations2 === void 0 ? void 0 : _event$registrations2.some(r => r.user_id === (user === null || user === void 0 ? void 0 : user.id)),\n                  isCreator: event.organizer_id === (user === null || user === void 0 ? void 0 : user.id)\n                }, event.id, false, {\n                  fileName: _jsxFileName,\n                  lineNumber: 445,\n                  columnNumber: 25\n                }, this);\n              })\n            }, void 0, false, {\n              fileName: _jsxFileName,\n              lineNumber: 443,\n              columnNumber: 21\n            }, this)]\n          }, void 0, true, {\n            fileName: _jsxFileName,\n            lineNumber: 441,\n            columnNumber: 19\n          }, this), past.length > 0 && /*#__PURE__*/_jsxDEV(\"div\", {\n            children: [/*#__PURE__*/_jsxDEV(\"h2\", {\n              className: \"text-2xl font-bold text-gray-900 mb-6\",\n              children: \"Past Events\"\n            }, void 0, false, {\n              fileName: _jsxFileName,\n              lineNumber: 461,\n              columnNumber: 21\n            }, this), /*#__PURE__*/_jsxDEV(\"div\", {\n              className: \"grid gap-6 md:grid-cols-2 lg:grid-cols-3\",\n              children: past.map(event => {\n                var _event$registrations3;\n                return /*#__PURE__*/_jsxDEV(EventCard, {\n                  event: event,\n                  onRegister: () => handleRegister(event.id),\n                  onWithdraw: () => handleWithdraw(event.id),\n                  onCancel: () => handleCancelEvent(event.id),\n                  isRegistered: (_event$registrations3 = event.registrations) === null || _event$registrations3 === void 0 ? void 0 : _event$registrations3.some(r => r.user_id === (user === null || user === void 0 ? void 0 : user.id)),\n                  isCreator: event.organizer_id === (user === null || user === void 0 ? void 0 : user.id)\n                }, event.id, false, {\n                  fileName: _jsxFileName,\n                  lineNumber: 464,\n                  columnNumber: 25\n                }, this);\n              })\n            }, void 0, false, {\n              fileName: _jsxFileName,\n              lineNumber: 462,\n              columnNumber: 21\n            }, this)]\n          }, void 0, true, {\n            fileName: _jsxFileName,\n            lineNumber: 460,\n            columnNumber: 19\n          }, this)]\n        }, void 0, true, {\n          fileName: _jsxFileName,\n          lineNumber: 439,\n          columnNumber: 15\n        }, this) : /*#__PURE__*/_jsxDEV(\"div\", {\n          className: \"text-center py-12\",\n          children: /*#__PURE__*/_jsxDEV(\"p\", {\n            className: \"text-xl text-gray-500\",\n            children: \"No events found in this area\"\n          }, void 0, false, {\n            fileName: _jsxFileName,\n            lineNumber: 480,\n            columnNumber: 17\n          }, this)\n        }, void 0, false, {\n          fileName: _jsxFileName,\n          lineNumber: 479,\n          columnNumber: 15\n        }, this)\n      }, void 0, false) : /*#__PURE__*/_jsxDEV(\"div\", {\n        className: \"text-center py-12\",\n        children: /*#__PURE__*/_jsxDEV(\"p\", {\n          className: \"text-xl text-gray-500\",\n          children: \"Please select a location to view events\"\n        }, void 0, false, {\n          fileName: _jsxFileName,\n          lineNumber: 486,\n          columnNumber: 13\n        }, this)\n      }, void 0, false, {\n        fileName: _jsxFileName,\n        lineNumber: 485,\n        columnNumber: 11\n      }, this)]\n    }, void 0, true, {\n      fileName: _jsxFileName,\n      lineNumber: 374,\n      columnNumber: 7\n    }, this)\n  }, void 0, false, {\n    fileName: _jsxFileName,\n    lineNumber: 373,\n    columnNumber: 5\n  }, this);\n};\n_s(Dashboard, \"uXu4ziTR87cO09R1a8b+7M8LBBs=\", false, function () {\n  return [useAuth, useNavigate];\n});\n_c = Dashboard;\nexport default Dashboard;\nvar _c;\n$RefreshReg$(_c, \"Dashboard\");","map":{"version":3,"names":["React","useState","useEffect","useNavigate","getEvents","registerForEvent","cancelEvent","useAuth","EventCard","debounce","jsxDEV","_jsxDEV","Fragment","_Fragment","Dashboard","_s","events","setEvents","loading","setLoading","error","setError","user","toast","setToast","selectedEvent","setSelectedEvent","expandedSections","setExpandedSections","upcoming","past","searchCity","setSearchCity","mileRange","setMileRange","searchQuery","setSearchQuery","searchResults","setSearchResults","isSearching","setIsSearching","showResults","setShowResults","selectedLocation","setSelectedLocation","navigate","MAJOR_US_CITIES","name","lat","lon","fetchEvents","timer","setTimeout","clearTimeout","data","sortedEvents","sort","a","b","Date","event_date","getTime","err","console","errorMsg","detail","JSON","stringify","message","isRegisteredForEvent","eventId","_events$find","_events$find$registra","find","event","id","registrations","some","r","user_id","isEventCreator","_events$find2","organizer_id","handleCancelEvent","handleRegister","handleWithdraw","handleLocationSelect","location","display_name","searchAddress","query","trim","url","encodeURIComponent","response","fetch","method","headers","window","origin","ok","Error","status","json","Array","isArray","toggleSection","section","prev","calculateDistance","lat1","lon1","lat2","lon2","R","dLat","Math","PI","dLon","sin","cos","c","atan2","sqrt","filterEventsByDistance","filter","latitude","longitude","distance","categorizeEvents","now","filteredEvents","is_cancelled","hasAnyEvents","length","renderEventCard","_event$registrations","onRegister","onWithdraw","onCancel","isRegistered","isCreator","fileName","_jsxFileName","lineNumber","columnNumber","renderEventSection","title","sectionKey","className","children","onClick","map","handleCityChange","e","value","target","filtered","city","toLowerCase","includes","type","onChange","placeholder","result","place_id","min","max","Number","style","background","_event$registrations2","_event$registrations3","_c","$RefreshReg$"],"sources":["C:/Users/Admin/Documents/RacketBuddy/frontend/src/pages/Dashboard.tsx"],"sourcesContent":["import React, { useState, useEffect } from 'react';\nimport { Link, useNavigate } from 'react-router-dom';\nimport { getEvents, registerForEvent, cancelEvent } from '../services/api';\nimport { Event } from '../types';\nimport { format, isThisWeek, isThisMonth, addWeeks, startOfWeek, endOfWeek, isPast, parseISO } from 'date-fns';\nimport { useAuth } from '../contexts/AuthContext';\nimport LocationMap from '../components/LocationMap';\nimport EventCard from '../components/EventCard';\nimport { debounce } from 'lodash';\n\nconst Dashboard: React.FC = () => {\n  const [events, setEvents] = useState<Event[]>([]);\n  const [loading, setLoading] = useState(true);\n  const [error, setError] = useState<string | null>(null);\n  const { user } = useAuth();\n  const [toast, setToast] = useState<{ message: string; type: 'success' | 'error' } | null>(null);\n  const [selectedEvent, setSelectedEvent] = useState<Event | null>(null);\n  const [expandedSections, setExpandedSections] = useState({\n    upcoming: true,\n    past: false\n  });\n  const [searchCity, setSearchCity] = useState('');\n  const [mileRange, setMileRange] = useState(20);\n  const [searchQuery, setSearchQuery] = useState('');\n  const [searchResults, setSearchResults] = useState<any[]>([]);\n  const [isSearching, setIsSearching] = useState(false);\n  const [showResults, setShowResults] = useState(false);\n  const [selectedLocation, setSelectedLocation] = useState<{ lat: number; lon: number; display_name: string } | null>(null);\n  const navigate = useNavigate();\n\n  const MAJOR_US_CITIES = [\n    // New York City and Boroughs\n    { name: 'New York', lat: 40.7128, lon: -74.0060 },\n    { name: 'Brooklyn', lat: 40.6782, lon: -73.9442 },\n    { name: 'Queens', lat: 40.7282, lon: -73.7949 },\n    { name: 'Bronx', lat: 40.8448, lon: -73.8648 },\n    { name: 'Manhattan', lat: 40.7831, lon: -73.9712 },\n    { name: 'Staten Island', lat: 40.5795, lon: -74.1502 },\n    // Los Angeles Area\n    { name: 'Los Angeles', lat: 34.0522, lon: -118.2437 },\n    { name: 'Hollywood', lat: 34.0928, lon: -118.3287 },\n    { name: 'Santa Monica', lat: 34.0195, lon: -118.4912 },\n    { name: 'Beverly Hills', lat: 34.0736, lon: -118.4004 },\n    // Chicago Area\n    { name: 'Chicago', lat: 41.8781, lon: -87.6298 },\n    { name: 'Evanston', lat: 42.0451, lon: -87.6877 },\n    { name: 'Oak Park', lat: 41.8850, lon: -87.7845 },\n    // Houston Area\n    { name: 'Houston', lat: 29.7604, lon: -95.3698 },\n    { name: 'Sugar Land', lat: 29.6197, lon: -95.6349 },\n    { name: 'The Woodlands', lat: 30.1658, lon: -95.4612 },\n    // Phoenix Area\n    { name: 'Phoenix', lat: 33.4484, lon: -112.0740 },\n    { name: 'Scottsdale', lat: 33.4942, lon: -111.9261 },\n    { name: 'Tempe', lat: 33.4255, lon: -111.9400 },\n    // Philadelphia Area\n    { name: 'Philadelphia', lat: 39.9526, lon: -75.1652 },\n    { name: 'Center City', lat: 39.9526, lon: -75.1652 },\n    { name: 'University City', lat: 39.9522, lon: -75.1932 },\n    // San Antonio Area\n    { name: 'San Antonio', lat: 29.4241, lon: -98.4936 },\n    { name: 'Alamo Heights', lat: 29.4847, lon: -98.4658 },\n    // San Diego Area\n    { name: 'San Diego', lat: 32.7157, lon: -117.1611 },\n    { name: 'La Jolla', lat: 32.8328, lon: -117.2713 },\n    { name: 'Coronado', lat: 32.6859, lon: -117.1831 },\n    // Dallas Area\n    { name: 'Dallas', lat: 32.7767, lon: -96.7970 },\n    { name: 'Plano', lat: 33.0198, lon: -96.6989 },\n    { name: 'Irving', lat: 32.8140, lon: -96.9489 },\n    // San Jose Area\n    { name: 'San Jose', lat: 37.3382, lon: -121.8863 },\n    { name: 'Palo Alto', lat: 37.4419, lon: -122.1430 },\n    { name: 'Mountain View', lat: 37.3861, lon: -122.0839 },\n    // Austin Area\n    { name: 'Austin', lat: 30.2672, lon: -97.7431 },\n    { name: 'Round Rock', lat: 30.5083, lon: -97.6789 },\n    // Jacksonville Area\n    { name: 'Jacksonville', lat: 30.3322, lon: -81.6557 },\n    { name: 'Jacksonville Beach', lat: 30.2947, lon: -81.3931 },\n    // Fort Worth Area\n    { name: 'Fort Worth', lat: 32.7555, lon: -97.3308 },\n    { name: 'Arlington', lat: 32.7357, lon: -97.1081 },\n    // Columbus Area\n    { name: 'Columbus', lat: 39.9612, lon: -82.9988 },\n    { name: 'Dublin', lat: 40.0992, lon: -83.1141 },\n    // Charlotte Area\n    { name: 'Charlotte', lat: 35.2271, lon: -80.8431 },\n    { name: 'Ballantyne', lat: 35.0527, lon: -80.8456 },\n    // San Francisco Area\n    { name: 'San Francisco', lat: 37.7749, lon: -122.4194 },\n    { name: 'Sausalito', lat: 37.8591, lon: -122.4853 },\n    { name: 'Tiburon', lat: 37.8735, lon: -122.4566 },\n    // Indianapolis Area\n    { name: 'Indianapolis', lat: 39.7684, lon: -86.1581 },\n    { name: 'Carmel', lat: 39.9784, lon: -86.1180 },\n    // Seattle Area\n    { name: 'Seattle', lat: 47.6062, lon: -122.3321 },\n    { name: 'Bellevue', lat: 47.6101, lon: -122.2015 },\n    { name: 'Kirkland', lat: 47.6769, lon: -122.2060 },\n    // Denver Area\n    { name: 'Denver', lat: 39.7392, lon: -104.9903 },\n    { name: 'Boulder', lat: 40.0150, lon: -105.2705 },\n    { name: 'Cherry Creek', lat: 39.7167, lon: -104.9500 },\n    // Washington DC Area\n    { name: 'Washington DC', lat: 38.9072, lon: -77.0369 },\n    { name: 'Georgetown', lat: 38.9097, lon: -77.0654 },\n    { name: 'Arlington VA', lat: 38.8816, lon: -77.0910 },\n    // Boston Area\n    { name: 'Boston', lat: 42.3601, lon: -71.0589 },\n    { name: 'Cambridge', lat: 42.3736, lon: -71.1097 },\n    { name: 'Brookline', lat: 42.3318, lon: -71.1212 },\n    // Rest of major cities\n    { name: 'El Paso', lat: 31.7619, lon: -106.4850 },\n    { name: 'Nashville', lat: 36.1627, lon: -86.7816 },\n    { name: 'Detroit', lat: 42.3314, lon: -83.0458 },\n    { name: 'Portland', lat: 45.5155, lon: -122.6789 },\n    { name: 'Las Vegas', lat: 36.1699, lon: -115.1398 },\n    { name: 'Oklahoma City', lat: 35.4676, lon: -97.5164 },\n    { name: 'Memphis', lat: 35.1495, lon: -90.0490 },\n    { name: 'Louisville', lat: 38.2527, lon: -85.7585 },\n    { name: 'Baltimore', lat: 39.2904, lon: -76.6122 },\n    { name: 'Milwaukee', lat: 43.0389, lon: -87.9065 },\n    { name: 'Albuquerque', lat: 35.0844, lon: -106.6504 },\n    { name: 'Tucson', lat: 32.2226, lon: -110.9747 },\n    { name: 'Fresno', lat: 36.7378, lon: -119.7871 },\n    { name: 'Sacramento', lat: 38.5816, lon: -121.4944 },\n    { name: 'Long Beach', lat: 33.7701, lon: -118.1937 },\n    { name: 'Kansas City', lat: 39.0997, lon: -94.5786 },\n    { name: 'Mesa', lat: 33.4152, lon: -111.8315 },\n    { name: 'Atlanta', lat: 33.7490, lon: -84.3880 },\n    { name: 'Colorado Springs', lat: 38.8339, lon: -104.8214 },\n    { name: 'Miami', lat: 25.7617, lon: -80.1918 },\n    { name: 'Raleigh', lat: 35.7796, lon: -78.6382 },\n    { name: 'Omaha', lat: 41.2565, lon: -95.9345 },\n    { name: 'Minneapolis', lat: 44.9778, lon: -93.2650 },\n    { name: 'Tulsa', lat: 36.1540, lon: -95.9928 },\n    { name: 'Cleveland', lat: 41.4993, lon: -81.6944 },\n    { name: 'Wichita', lat: 37.6872, lon: -97.3301 },\n    { name: 'New Orleans', lat: 29.9511, lon: -90.0715 },\n    { name: 'Bakersfield', lat: 35.3733, lon: -119.0187 },\n    { name: 'Tampa', lat: 27.9506, lon: -82.4572 }\n  ];\n\n  useEffect(() => {\n    fetchEvents();\n  }, []);\n\n  // Auto-hide toast after 3 seconds\n  useEffect(() => {\n    if (toast) {\n      const timer = setTimeout(() => {\n        setToast(null);\n      }, 3000);\n      return () => clearTimeout(timer);\n    }\n  }, [toast]);\n\n  const fetchEvents = async () => {\n    try {\n      const data = await getEvents();\n      // Sort events by date\n      const sortedEvents = data.sort((a, b) => \n        new Date(a.event_date).getTime() - new Date(b.event_date).getTime()\n      );\n      setEvents(sortedEvents);\n      setError(null);\n    } catch (err: any) {\n      console.error('Failed to load events:', err);\n      let errorMsg = 'Failed to load events';\n      if (err.detail) {\n        errorMsg = typeof err.detail === 'string' ? err.detail : JSON.stringify(err.detail);\n      } else if (err.message) {\n        errorMsg = err.message;\n      }\n      setError(errorMsg);\n    } finally {\n      setLoading(false);\n    }\n  };\n\n  const isRegisteredForEvent = (eventId: number) => {\n    return events.find(event => event.id === eventId)?.registrations?.some(r => r.user_id === user?.id) || false;\n  };\n\n  const isEventCreator = (eventId: number) => {\n    return events.find(event => event.id === eventId)?.organizer_id === user?.id;\n  };\n\n  const handleCancelEvent = async (eventId: number) => {\n    try {\n      await cancelEvent(eventId);\n      fetchEvents();\n    } catch (error) {\n      console.error('Error cancelling event:', error);\n    }\n  };\n\n  const handleRegister = async (eventId: number) => {\n    try {\n      await registerForEvent(eventId);\n      fetchEvents();\n    } catch (error) {\n      console.error('Error registering for event:', error);\n    }\n  };\n\n  const handleWithdraw = async (eventId: number) => {\n    try {\n      await registerForEvent(eventId, true);\n      fetchEvents();\n    } catch (error) {\n      console.error('Error withdrawing from event:', error);\n    }\n  };\n\n  const handleLocationSelect = (location: any) => {\n    setSelectedLocation(location);\n    setSearchQuery(location.display_name);\n    setShowResults(false);\n  };\n\n  const searchAddress = debounce(async (query: string) => {\n    if (!query.trim()) {\n      setSearchResults([]);\n      setShowResults(false);\n      return;\n    }\n\n    setIsSearching(true);\n    try {\n      const url = `https://cors-anywhere.herokuapp.com/https://nominatim.openstreetmap.org/search?format=json&q=${encodeURIComponent(\n        query\n      )}&countrycodes=us&limit=5`;\n\n      const response = await fetch(url, {\n        method: 'GET',\n        headers: {\n          'Accept-Language': 'en-US,en;q=0.9',\n          'User-Agent': 'RacketBuddy/1.0',\n          'Accept': 'application/json',\n          'Origin': window.location.origin,\n          'X-Requested-With': 'XMLHttpRequest'\n        }\n      });\n      \n      if (!response.ok) {\n        throw new Error(`HTTP error! status: ${response.status}`);\n      }\n      \n      const data = await response.json();\n      \n      if (data && Array.isArray(data)) {\n        setSearchResults(data);\n        setShowResults(true);\n      } else {\n        setSearchResults([]);\n        setShowResults(false);\n      }\n    } catch (error) {\n      console.error('Error searching address:', error);\n      setSearchResults([]);\n      setShowResults(false);\n    } finally {\n      setIsSearching(false);\n    }\n  }, 300);\n\n  useEffect(() => {\n    searchAddress(searchQuery);\n  }, [searchQuery]);\n\n  const toggleSection = (section: keyof typeof expandedSections) => {\n    setExpandedSections(prev => ({\n      ...prev,\n      [section]: !prev[section]\n    }));\n  };\n\n  const calculateDistance = (lat1: number, lon1: number, lat2: number, lon2: number) => {\n    const R = 3959; // Earth's radius in miles\n    const dLat = (lat2 - lat1) * Math.PI / 180;\n    const dLon = (lon2 - lon1) * Math.PI / 180;\n    const a = \n      Math.sin(dLat/2) * Math.sin(dLat/2) +\n      Math.cos(lat1 * Math.PI / 180) * Math.cos(lat2 * Math.PI / 180) * \n      Math.sin(dLon/2) * Math.sin(dLon/2);\n    const c = 2 * Math.atan2(Math.sqrt(a), Math.sqrt(1-a));\n    return R * c;\n  };\n\n  const filterEventsByDistance = (events: Event[]) => {\n    if (!selectedLocation) return events;\n    \n    return events.filter(event => {\n      if (!event.latitude || !event.longitude) return false;\n      \n      const distance = calculateDistance(\n        selectedLocation.lat,\n        selectedLocation.lon,\n        event.latitude,\n        event.longitude\n      );\n      \n      return distance <= mileRange;\n    });\n  };\n\n  const categorizeEvents = () => {\n    const now = new Date();\n    const filteredEvents = filterEventsByDistance(events);\n    return {\n      upcoming: filteredEvents.filter(event => new Date(event.event_date) >= now && !event.is_cancelled),\n      past: filteredEvents.filter(event => new Date(event.event_date) < now && !event.is_cancelled)\n    };\n  };\n\n  const { upcoming, past } = categorizeEvents();\n  const hasAnyEvents = upcoming.length > 0 || past.length > 0;\n\n  const renderEventCard = (event: Event) => {\n    return (\n      <EventCard\n        key={event.id}\n        event={event}\n        onRegister={() => handleRegister(event.id)}\n        onWithdraw={() => handleWithdraw(event.id)}\n        onCancel={() => handleCancelEvent(event.id)}\n        isRegistered={event.registrations?.some(r => r.user_id === user?.id)}\n        isCreator={event.organizer_id === user?.id}\n      />\n    );\n  };\n\n  const renderEventSection = (title: string, events: Event[], sectionKey: keyof typeof expandedSections) => (\n    <div className=\"mb-8\">\n      <button\n        onClick={() => toggleSection(sectionKey)}\n        className=\"w-full flex justify-between items-center text-2xl font-bold text-gray-900 mb-4 hover:text-[#C4E538] transition-colors\"\n      >\n        <span>{title}</span>\n        <span className=\"text-lg\">\n          {expandedSections[sectionKey] ? '▼' : '▶'}\n        </span>\n      </button>\n      {expandedSections[sectionKey] && events.length > 0 ? (\n        <div className=\"grid grid-cols-1 gap-6 sm:grid-cols-2 lg:grid-cols-3\">\n          {events.map(renderEventCard)}\n        </div>\n      ) : (\n        <p className=\"text-gray-500 text-center py-4\">\n          {expandedSections[sectionKey] ? 'No events in this period' : ''}\n        </p>\n      )}\n    </div>\n  );\n\n  const handleCityChange = (e: React.ChangeEvent<HTMLInputElement>) => {\n    const value = e.target.value;\n    setSearchCity(value);\n    \n    if (value) {\n      const filtered = MAJOR_US_CITIES.filter(city => \n        city.name.toLowerCase().includes(value.toLowerCase())\n      );\n      setSearchResults(filtered);\n    } else {\n      setSearchResults([]);\n    }\n  };\n\n  return (\n    <div className=\"min-h-screen bg-gray-50 py-12 px-4 sm:px-6 lg:px-8\">\n      <div className=\"max-w-7xl mx-auto\">\n        <div className=\"text-center mb-12\">\n          <h1 className=\"text-4xl font-extrabold text-gray-900 sm:text-5xl sm:tracking-tight lg:text-6xl\">\n            Find Events\n          </h1>\n          <p className=\"mt-5 max-w-xl mx-auto text-xl text-gray-500\">\n            {selectedLocation ? `Events within ${mileRange} miles of ${selectedLocation.display_name}` : 'Select a location to search for events'}\n          </p>\n        </div>\n\n        {/* Location Search */}\n        <div className=\"max-w-3xl mx-auto mb-12 px-4\">\n          <div className=\"flex flex-col sm:flex-row gap-4 justify-center items-center\">\n            <div className=\"relative flex-1 max-w-xl\">\n              <input\n                type=\"text\"\n                value={searchQuery}\n                onChange={(e) => setSearchQuery(e.target.value)}\n                placeholder=\"Enter city, state, or zip code\"\n                className=\"w-full px-4 py-3 rounded-lg border border-gray-300 focus:ring-2 focus:ring-blue-500 focus:border-blue-500\"\n              />\n              {isSearching && (\n                <div className=\"absolute right-3 top-3\">\n                  <div className=\"animate-spin rounded-full h-6 w-6 border-b-2 border-blue-500\"></div>\n                </div>\n              )}\n              {showResults && searchResults.length > 0 && (\n                <div className=\"absolute z-10 w-full mt-1 bg-white rounded-md shadow-lg\">\n                  <ul className=\"max-h-60 rounded-md py-1 text-base overflow-auto focus:outline-none sm:text-sm\">\n                    {searchResults.map((result) => (\n                      <li\n                        key={result.place_id}\n                        className=\"cursor-pointer select-none relative py-2 pl-3 pr-9 hover:bg-blue-50\"\n                        onClick={() => handleLocationSelect(result)}\n                      >\n                        <div className=\"flex items-center\">\n                          <span className=\"ml-3 truncate\">{result.display_name}</span>\n                        </div>\n                      </li>\n                    ))}\n                  </ul>\n                </div>\n              )}\n            </div>\n            <div className=\"flex items-center gap-2 min-w-[200px]\">\n              <input\n                type=\"range\"\n                min=\"1\"\n                max=\"100\"\n                value={mileRange}\n                onChange={(e) => setMileRange(Number(e.target.value))}\n                className=\"w-full h-2 bg-gray-200 rounded-lg appearance-none cursor-pointer [&::-webkit-slider-thumb]:appearance-none [&::-webkit-slider-thumb]:w-4 [&::-webkit-slider-thumb]:h-4 [&::-webkit-slider-thumb]:rounded-full [&::-webkit-slider-thumb]:bg-[#C4E538] [&::-webkit-slider-thumb]:cursor-pointer [&::-moz-range-thumb]:w-4 [&::-moz-range-thumb]:h-4 [&::-moz-range-thumb]:rounded-full [&::-moz-range-thumb]:bg-[#C4E538] [&::-moz-range-thumb]:border-0 [&::-moz-range-thumb]:cursor-pointer [&::-moz-range-track]:bg-gray-200 [&::-moz-range-track]:rounded-lg [&::-moz-range-track]:h-2\"\n                style={{\n                  background: `linear-gradient(to right, #C4E538 0%, #C4E538 ${(mileRange - 1) * (100 / 99)}%, #E5E7EB ${(mileRange - 1) * (100 / 99)}%, #E5E7EB 100%)`\n                }}\n              />\n              <span className=\"text-sm font-medium text-[#C4E538] whitespace-nowrap\">{mileRange} miles</span>\n            </div>\n          </div>\n        </div>\n\n        {/* Events List */}\n        {selectedLocation ? (\n          <>\n            {hasAnyEvents ? (\n              <div className=\"space-y-12\">\n                {upcoming.length > 0 && (\n                  <div>\n                    <h2 className=\"text-2xl font-bold text-gray-900 mb-6\">Upcoming Events</h2>\n                    <div className=\"grid gap-6 md:grid-cols-2 lg:grid-cols-3\">\n                      {upcoming.map((event) => (\n                        <EventCard\n                          key={event.id}\n                          event={event}\n                          onRegister={() => handleRegister(event.id)}\n                          onWithdraw={() => handleWithdraw(event.id)}\n                          onCancel={() => handleCancelEvent(event.id)}\n                          isRegistered={event.registrations?.some(r => r.user_id === user?.id)}\n                          isCreator={event.organizer_id === user?.id}\n                        />\n                      ))}\n                    </div>\n                  </div>\n                )}\n\n                {past.length > 0 && (\n                  <div>\n                    <h2 className=\"text-2xl font-bold text-gray-900 mb-6\">Past Events</h2>\n                    <div className=\"grid gap-6 md:grid-cols-2 lg:grid-cols-3\">\n                      {past.map((event) => (\n                        <EventCard\n                          key={event.id}\n                          event={event}\n                          onRegister={() => handleRegister(event.id)}\n                          onWithdraw={() => handleWithdraw(event.id)}\n                          onCancel={() => handleCancelEvent(event.id)}\n                          isRegistered={event.registrations?.some(r => r.user_id === user?.id)}\n                          isCreator={event.organizer_id === user?.id}\n                        />\n                      ))}\n                    </div>\n                  </div>\n                )}\n              </div>\n            ) : (\n              <div className=\"text-center py-12\">\n                <p className=\"text-xl text-gray-500\">No events found in this area</p>\n              </div>\n            )}\n          </>\n        ) : (\n          <div className=\"text-center py-12\">\n            <p className=\"text-xl text-gray-500\">Please select a location to view events</p>\n          </div>\n        )}\n      </div>\n    </div>\n  );\n};\n\nexport default Dashboard; "],"mappings":";;AAAA,OAAOA,KAAK,IAAIC,QAAQ,EAAEC,SAAS,QAAQ,OAAO;AAClD,SAAeC,WAAW,QAAQ,kBAAkB;AACpD,SAASC,SAAS,EAAEC,gBAAgB,EAAEC,WAAW,QAAQ,iBAAiB;AAG1E,SAASC,OAAO,QAAQ,yBAAyB;AAEjD,OAAOC,SAAS,MAAM,yBAAyB;AAC/C,SAASC,QAAQ,QAAQ,QAAQ;AAAC,SAAAC,MAAA,IAAAC,OAAA,EAAAC,QAAA,IAAAC,SAAA;AAElC,MAAMC,SAAmB,GAAGA,CAAA,KAAM;EAAAC,EAAA;EAChC,MAAM,CAACC,MAAM,EAAEC,SAAS,CAAC,GAAGhB,QAAQ,CAAU,EAAE,CAAC;EACjD,MAAM,CAACiB,OAAO,EAAEC,UAAU,CAAC,GAAGlB,QAAQ,CAAC,IAAI,CAAC;EAC5C,MAAM,CAACmB,KAAK,EAAEC,QAAQ,CAAC,GAAGpB,QAAQ,CAAgB,IAAI,CAAC;EACvD,MAAM;IAAEqB;EAAK,CAAC,GAAGf,OAAO,CAAC,CAAC;EAC1B,MAAM,CAACgB,KAAK,EAAEC,QAAQ,CAAC,GAAGvB,QAAQ,CAAwD,IAAI,CAAC;EAC/F,MAAM,CAACwB,aAAa,EAAEC,gBAAgB,CAAC,GAAGzB,QAAQ,CAAe,IAAI,CAAC;EACtE,MAAM,CAAC0B,gBAAgB,EAAEC,mBAAmB,CAAC,GAAG3B,QAAQ,CAAC;IACvD4B,QAAQ,EAAE,IAAI;IACdC,IAAI,EAAE;EACR,CAAC,CAAC;EACF,MAAM,CAACC,UAAU,EAAEC,aAAa,CAAC,GAAG/B,QAAQ,CAAC,EAAE,CAAC;EAChD,MAAM,CAACgC,SAAS,EAAEC,YAAY,CAAC,GAAGjC,QAAQ,CAAC,EAAE,CAAC;EAC9C,MAAM,CAACkC,WAAW,EAAEC,cAAc,CAAC,GAAGnC,QAAQ,CAAC,EAAE,CAAC;EAClD,MAAM,CAACoC,aAAa,EAAEC,gBAAgB,CAAC,GAAGrC,QAAQ,CAAQ,EAAE,CAAC;EAC7D,MAAM,CAACsC,WAAW,EAAEC,cAAc,CAAC,GAAGvC,QAAQ,CAAC,KAAK,CAAC;EACrD,MAAM,CAACwC,WAAW,EAAEC,cAAc,CAAC,GAAGzC,QAAQ,CAAC,KAAK,CAAC;EACrD,MAAM,CAAC0C,gBAAgB,EAAEC,mBAAmB,CAAC,GAAG3C,QAAQ,CAA4D,IAAI,CAAC;EACzH,MAAM4C,QAAQ,GAAG1C,WAAW,CAAC,CAAC;EAE9B,MAAM2C,eAAe,GAAG;EACtB;EACA;IAAEC,IAAI,EAAE,UAAU;IAAEC,GAAG,EAAE,OAAO;IAAEC,GAAG,EAAE,CAAC;EAAQ,CAAC,EACjD;IAAEF,IAAI,EAAE,UAAU;IAAEC,GAAG,EAAE,OAAO;IAAEC,GAAG,EAAE,CAAC;EAAQ,CAAC,EACjD;IAAEF,IAAI,EAAE,QAAQ;IAAEC,GAAG,EAAE,OAAO;IAAEC,GAAG,EAAE,CAAC;EAAQ,CAAC,EAC/C;IAAEF,IAAI,EAAE,OAAO;IAAEC,GAAG,EAAE,OAAO;IAAEC,GAAG,EAAE,CAAC;EAAQ,CAAC,EAC9C;IAAEF,IAAI,EAAE,WAAW;IAAEC,GAAG,EAAE,OAAO;IAAEC,GAAG,EAAE,CAAC;EAAQ,CAAC,EAClD;IAAEF,IAAI,EAAE,eAAe;IAAEC,GAAG,EAAE,OAAO;IAAEC,GAAG,EAAE,CAAC;EAAQ,CAAC;EACtD;EACA;IAAEF,IAAI,EAAE,aAAa;IAAEC,GAAG,EAAE,OAAO;IAAEC,GAAG,EAAE,CAAC;EAAS,CAAC,EACrD;IAAEF,IAAI,EAAE,WAAW;IAAEC,GAAG,EAAE,OAAO;IAAEC,GAAG,EAAE,CAAC;EAAS,CAAC,EACnD;IAAEF,IAAI,EAAE,cAAc;IAAEC,GAAG,EAAE,OAAO;IAAEC,GAAG,EAAE,CAAC;EAAS,CAAC,EACtD;IAAEF,IAAI,EAAE,eAAe;IAAEC,GAAG,EAAE,OAAO;IAAEC,GAAG,EAAE,CAAC;EAAS,CAAC;EACvD;EACA;IAAEF,IAAI,EAAE,SAAS;IAAEC,GAAG,EAAE,OAAO;IAAEC,GAAG,EAAE,CAAC;EAAQ,CAAC,EAChD;IAAEF,IAAI,EAAE,UAAU;IAAEC,GAAG,EAAE,OAAO;IAAEC,GAAG,EAAE,CAAC;EAAQ,CAAC,EACjD;IAAEF,IAAI,EAAE,UAAU;IAAEC,GAAG,EAAE,OAAO;IAAEC,GAAG,EAAE,CAAC;EAAQ,CAAC;EACjD;EACA;IAAEF,IAAI,EAAE,SAAS;IAAEC,GAAG,EAAE,OAAO;IAAEC,GAAG,EAAE,CAAC;EAAQ,CAAC,EAChD;IAAEF,IAAI,EAAE,YAAY;IAAEC,GAAG,EAAE,OAAO;IAAEC,GAAG,EAAE,CAAC;EAAQ,CAAC,EACnD;IAAEF,IAAI,EAAE,eAAe;IAAEC,GAAG,EAAE,OAAO;IAAEC,GAAG,EAAE,CAAC;EAAQ,CAAC;EACtD;EACA;IAAEF,IAAI,EAAE,SAAS;IAAEC,GAAG,EAAE,OAAO;IAAEC,GAAG,EAAE,CAAC;EAAS,CAAC,EACjD;IAAEF,IAAI,EAAE,YAAY;IAAEC,GAAG,EAAE,OAAO;IAAEC,GAAG,EAAE,CAAC;EAAS,CAAC,EACpD;IAAEF,IAAI,EAAE,OAAO;IAAEC,GAAG,EAAE,OAAO;IAAEC,GAAG,EAAE,CAAC;EAAS,CAAC;EAC/C;EACA;IAAEF,IAAI,EAAE,cAAc;IAAEC,GAAG,EAAE,OAAO;IAAEC,GAAG,EAAE,CAAC;EAAQ,CAAC,EACrD;IAAEF,IAAI,EAAE,aAAa;IAAEC,GAAG,EAAE,OAAO;IAAEC,GAAG,EAAE,CAAC;EAAQ,CAAC,EACpD;IAAEF,IAAI,EAAE,iBAAiB;IAAEC,GAAG,EAAE,OAAO;IAAEC,GAAG,EAAE,CAAC;EAAQ,CAAC;EACxD;EACA;IAAEF,IAAI,EAAE,aAAa;IAAEC,GAAG,EAAE,OAAO;IAAEC,GAAG,EAAE,CAAC;EAAQ,CAAC,EACpD;IAAEF,IAAI,EAAE,eAAe;IAAEC,GAAG,EAAE,OAAO;IAAEC,GAAG,EAAE,CAAC;EAAQ,CAAC;EACtD;EACA;IAAEF,IAAI,EAAE,WAAW;IAAEC,GAAG,EAAE,OAAO;IAAEC,GAAG,EAAE,CAAC;EAAS,CAAC,EACnD;IAAEF,IAAI,EAAE,UAAU;IAAEC,GAAG,EAAE,OAAO;IAAEC,GAAG,EAAE,CAAC;EAAS,CAAC,EAClD;IAAEF,IAAI,EAAE,UAAU;IAAEC,GAAG,EAAE,OAAO;IAAEC,GAAG,EAAE,CAAC;EAAS,CAAC;EAClD;EACA;IAAEF,IAAI,EAAE,QAAQ;IAAEC,GAAG,EAAE,OAAO;IAAEC,GAAG,EAAE,CAAC;EAAQ,CAAC,EAC/C;IAAEF,IAAI,EAAE,OAAO;IAAEC,GAAG,EAAE,OAAO;IAAEC,GAAG,EAAE,CAAC;EAAQ,CAAC,EAC9C;IAAEF,IAAI,EAAE,QAAQ;IAAEC,GAAG,EAAE,OAAO;IAAEC,GAAG,EAAE,CAAC;EAAQ,CAAC;EAC/C;EACA;IAAEF,IAAI,EAAE,UAAU;IAAEC,GAAG,EAAE,OAAO;IAAEC,GAAG,EAAE,CAAC;EAAS,CAAC,EAClD;IAAEF,IAAI,EAAE,WAAW;IAAEC,GAAG,EAAE,OAAO;IAAEC,GAAG,EAAE,CAAC;EAAS,CAAC,EACnD;IAAEF,IAAI,EAAE,eAAe;IAAEC,GAAG,EAAE,OAAO;IAAEC,GAAG,EAAE,CAAC;EAAS,CAAC;EACvD;EACA;IAAEF,IAAI,EAAE,QAAQ;IAAEC,GAAG,EAAE,OAAO;IAAEC,GAAG,EAAE,CAAC;EAAQ,CAAC,EAC/C;IAAEF,IAAI,EAAE,YAAY;IAAEC,GAAG,EAAE,OAAO;IAAEC,GAAG,EAAE,CAAC;EAAQ,CAAC;EACnD;EACA;IAAEF,IAAI,EAAE,cAAc;IAAEC,GAAG,EAAE,OAAO;IAAEC,GAAG,EAAE,CAAC;EAAQ,CAAC,EACrD;IAAEF,IAAI,EAAE,oBAAoB;IAAEC,GAAG,EAAE,OAAO;IAAEC,GAAG,EAAE,CAAC;EAAQ,CAAC;EAC3D;EACA;IAAEF,IAAI,EAAE,YAAY;IAAEC,GAAG,EAAE,OAAO;IAAEC,GAAG,EAAE,CAAC;EAAQ,CAAC,EACnD;IAAEF,IAAI,EAAE,WAAW;IAAEC,GAAG,EAAE,OAAO;IAAEC,GAAG,EAAE,CAAC;EAAQ,CAAC;EAClD;EACA;IAAEF,IAAI,EAAE,UAAU;IAAEC,GAAG,EAAE,OAAO;IAAEC,GAAG,EAAE,CAAC;EAAQ,CAAC,EACjD;IAAEF,IAAI,EAAE,QAAQ;IAAEC,GAAG,EAAE,OAAO;IAAEC,GAAG,EAAE,CAAC;EAAQ,CAAC;EAC/C;EACA;IAAEF,IAAI,EAAE,WAAW;IAAEC,GAAG,EAAE,OAAO;IAAEC,GAAG,EAAE,CAAC;EAAQ,CAAC,EAClD;IAAEF,IAAI,EAAE,YAAY;IAAEC,GAAG,EAAE,OAAO;IAAEC,GAAG,EAAE,CAAC;EAAQ,CAAC;EACnD;EACA;IAAEF,IAAI,EAAE,eAAe;IAAEC,GAAG,EAAE,OAAO;IAAEC,GAAG,EAAE,CAAC;EAAS,CAAC,EACvD;IAAEF,IAAI,EAAE,WAAW;IAAEC,GAAG,EAAE,OAAO;IAAEC,GAAG,EAAE,CAAC;EAAS,CAAC,EACnD;IAAEF,IAAI,EAAE,SAAS;IAAEC,GAAG,EAAE,OAAO;IAAEC,GAAG,EAAE,CAAC;EAAS,CAAC;EACjD;EACA;IAAEF,IAAI,EAAE,cAAc;IAAEC,GAAG,EAAE,OAAO;IAAEC,GAAG,EAAE,CAAC;EAAQ,CAAC,EACrD;IAAEF,IAAI,EAAE,QAAQ;IAAEC,GAAG,EAAE,OAAO;IAAEC,GAAG,EAAE,CAAC;EAAQ,CAAC;EAC/C;EACA;IAAEF,IAAI,EAAE,SAAS;IAAEC,GAAG,EAAE,OAAO;IAAEC,GAAG,EAAE,CAAC;EAAS,CAAC,EACjD;IAAEF,IAAI,EAAE,UAAU;IAAEC,GAAG,EAAE,OAAO;IAAEC,GAAG,EAAE,CAAC;EAAS,CAAC,EAClD;IAAEF,IAAI,EAAE,UAAU;IAAEC,GAAG,EAAE,OAAO;IAAEC,GAAG,EAAE,CAAC;EAAS,CAAC;EAClD;EACA;IAAEF,IAAI,EAAE,QAAQ;IAAEC,GAAG,EAAE,OAAO;IAAEC,GAAG,EAAE,CAAC;EAAS,CAAC,EAChD;IAAEF,IAAI,EAAE,SAAS;IAAEC,GAAG,EAAE,OAAO;IAAEC,GAAG,EAAE,CAAC;EAAS,CAAC,EACjD;IAAEF,IAAI,EAAE,cAAc;IAAEC,GAAG,EAAE,OAAO;IAAEC,GAAG,EAAE,CAAC;EAAS,CAAC;EACtD;EACA;IAAEF,IAAI,EAAE,eAAe;IAAEC,GAAG,EAAE,OAAO;IAAEC,GAAG,EAAE,CAAC;EAAQ,CAAC,EACtD;IAAEF,IAAI,EAAE,YAAY;IAAEC,GAAG,EAAE,OAAO;IAAEC,GAAG,EAAE,CAAC;EAAQ,CAAC,EACnD;IAAEF,IAAI,EAAE,cAAc;IAAEC,GAAG,EAAE,OAAO;IAAEC,GAAG,EAAE,CAAC;EAAQ,CAAC;EACrD;EACA;IAAEF,IAAI,EAAE,QAAQ;IAAEC,GAAG,EAAE,OAAO;IAAEC,GAAG,EAAE,CAAC;EAAQ,CAAC,EAC/C;IAAEF,IAAI,EAAE,WAAW;IAAEC,GAAG,EAAE,OAAO;IAAEC,GAAG,EAAE,CAAC;EAAQ,CAAC,EAClD;IAAEF,IAAI,EAAE,WAAW;IAAEC,GAAG,EAAE,OAAO;IAAEC,GAAG,EAAE,CAAC;EAAQ,CAAC;EAClD;EACA;IAAEF,IAAI,EAAE,SAAS;IAAEC,GAAG,EAAE,OAAO;IAAEC,GAAG,EAAE,CAAC;EAAS,CAAC,EACjD;IAAEF,IAAI,EAAE,WAAW;IAAEC,GAAG,EAAE,OAAO;IAAEC,GAAG,EAAE,CAAC;EAAQ,CAAC,EAClD;IAAEF,IAAI,EAAE,SAAS;IAAEC,GAAG,EAAE,OAAO;IAAEC,GAAG,EAAE,CAAC;EAAQ,CAAC,EAChD;IAAEF,IAAI,EAAE,UAAU;IAAEC,GAAG,EAAE,OAAO;IAAEC,GAAG,EAAE,CAAC;EAAS,CAAC,EAClD;IAAEF,IAAI,EAAE,WAAW;IAAEC,GAAG,EAAE,OAAO;IAAEC,GAAG,EAAE,CAAC;EAAS,CAAC,EACnD;IAAEF,IAAI,EAAE,eAAe;IAAEC,GAAG,EAAE,OAAO;IAAEC,GAAG,EAAE,CAAC;EAAQ,CAAC,EACtD;IAAEF,IAAI,EAAE,SAAS;IAAEC,GAAG,EAAE,OAAO;IAAEC,GAAG,EAAE,CAAC;EAAQ,CAAC,EAChD;IAAEF,IAAI,EAAE,YAAY;IAAEC,GAAG,EAAE,OAAO;IAAEC,GAAG,EAAE,CAAC;EAAQ,CAAC,EACnD;IAAEF,IAAI,EAAE,WAAW;IAAEC,GAAG,EAAE,OAAO;IAAEC,GAAG,EAAE,CAAC;EAAQ,CAAC,EAClD;IAAEF,IAAI,EAAE,WAAW;IAAEC,GAAG,EAAE,OAAO;IAAEC,GAAG,EAAE,CAAC;EAAQ,CAAC,EAClD;IAAEF,IAAI,EAAE,aAAa;IAAEC,GAAG,EAAE,OAAO;IAAEC,GAAG,EAAE,CAAC;EAAS,CAAC,EACrD;IAAEF,IAAI,EAAE,QAAQ;IAAEC,GAAG,EAAE,OAAO;IAAEC,GAAG,EAAE,CAAC;EAAS,CAAC,EAChD;IAAEF,IAAI,EAAE,QAAQ;IAAEC,GAAG,EAAE,OAAO;IAAEC,GAAG,EAAE,CAAC;EAAS,CAAC,EAChD;IAAEF,IAAI,EAAE,YAAY;IAAEC,GAAG,EAAE,OAAO;IAAEC,GAAG,EAAE,CAAC;EAAS,CAAC,EACpD;IAAEF,IAAI,EAAE,YAAY;IAAEC,GAAG,EAAE,OAAO;IAAEC,GAAG,EAAE,CAAC;EAAS,CAAC,EACpD;IAAEF,IAAI,EAAE,aAAa;IAAEC,GAAG,EAAE,OAAO;IAAEC,GAAG,EAAE,CAAC;EAAQ,CAAC,EACpD;IAAEF,IAAI,EAAE,MAAM;IAAEC,GAAG,EAAE,OAAO;IAAEC,GAAG,EAAE,CAAC;EAAS,CAAC,EAC9C;IAAEF,IAAI,EAAE,SAAS;IAAEC,GAAG,EAAE,OAAO;IAAEC,GAAG,EAAE,CAAC;EAAQ,CAAC,EAChD;IAAEF,IAAI,EAAE,kBAAkB;IAAEC,GAAG,EAAE,OAAO;IAAEC,GAAG,EAAE,CAAC;EAAS,CAAC,EAC1D;IAAEF,IAAI,EAAE,OAAO;IAAEC,GAAG,EAAE,OAAO;IAAEC,GAAG,EAAE,CAAC;EAAQ,CAAC,EAC9C;IAAEF,IAAI,EAAE,SAAS;IAAEC,GAAG,EAAE,OAAO;IAAEC,GAAG,EAAE,CAAC;EAAQ,CAAC,EAChD;IAAEF,IAAI,EAAE,OAAO;IAAEC,GAAG,EAAE,OAAO;IAAEC,GAAG,EAAE,CAAC;EAAQ,CAAC,EAC9C;IAAEF,IAAI,EAAE,aAAa;IAAEC,GAAG,EAAE,OAAO;IAAEC,GAAG,EAAE,CAAC;EAAQ,CAAC,EACpD;IAAEF,IAAI,EAAE,OAAO;IAAEC,GAAG,EAAE,OAAO;IAAEC,GAAG,EAAE,CAAC;EAAQ,CAAC,EAC9C;IAAEF,IAAI,EAAE,WAAW;IAAEC,GAAG,EAAE,OAAO;IAAEC,GAAG,EAAE,CAAC;EAAQ,CAAC,EAClD;IAAEF,IAAI,EAAE,SAAS;IAAEC,GAAG,EAAE,OAAO;IAAEC,GAAG,EAAE,CAAC;EAAQ,CAAC,EAChD;IAAEF,IAAI,EAAE,aAAa;IAAEC,GAAG,EAAE,OAAO;IAAEC,GAAG,EAAE,CAAC;EAAQ,CAAC,EACpD;IAAEF,IAAI,EAAE,aAAa;IAAEC,GAAG,EAAE,OAAO;IAAEC,GAAG,EAAE,CAAC;EAAS,CAAC,EACrD;IAAEF,IAAI,EAAE,OAAO;IAAEC,GAAG,EAAE,OAAO;IAAEC,GAAG,EAAE,CAAC;EAAQ,CAAC,CAC/C;EAED/C,SAAS,CAAC,MAAM;IACdgD,WAAW,CAAC,CAAC;EACf,CAAC,EAAE,EAAE,CAAC;;EAEN;EACAhD,SAAS,CAAC,MAAM;IACd,IAAIqB,KAAK,EAAE;MACT,MAAM4B,KAAK,GAAGC,UAAU,CAAC,MAAM;QAC7B5B,QAAQ,CAAC,IAAI,CAAC;MAChB,CAAC,EAAE,IAAI,CAAC;MACR,OAAO,MAAM6B,YAAY,CAACF,KAAK,CAAC;IAClC;EACF,CAAC,EAAE,CAAC5B,KAAK,CAAC,CAAC;EAEX,MAAM2B,WAAW,GAAG,MAAAA,CAAA,KAAY;IAC9B,IAAI;MACF,MAAMI,IAAI,GAAG,MAAMlD,SAAS,CAAC,CAAC;MAC9B;MACA,MAAMmD,YAAY,GAAGD,IAAI,CAACE,IAAI,CAAC,CAACC,CAAC,EAAEC,CAAC,KAClC,IAAIC,IAAI,CAACF,CAAC,CAACG,UAAU,CAAC,CAACC,OAAO,CAAC,CAAC,GAAG,IAAIF,IAAI,CAACD,CAAC,CAACE,UAAU,CAAC,CAACC,OAAO,CAAC,CACpE,CAAC;MACD5C,SAAS,CAACsC,YAAY,CAAC;MACvBlC,QAAQ,CAAC,IAAI,CAAC;IAChB,CAAC,CAAC,OAAOyC,GAAQ,EAAE;MACjBC,OAAO,CAAC3C,KAAK,CAAC,wBAAwB,EAAE0C,GAAG,CAAC;MAC5C,IAAIE,QAAQ,GAAG,uBAAuB;MACtC,IAAIF,GAAG,CAACG,MAAM,EAAE;QACdD,QAAQ,GAAG,OAAOF,GAAG,CAACG,MAAM,KAAK,QAAQ,GAAGH,GAAG,CAACG,MAAM,GAAGC,IAAI,CAACC,SAAS,CAACL,GAAG,CAACG,MAAM,CAAC;MACrF,CAAC,MAAM,IAAIH,GAAG,CAACM,OAAO,EAAE;QACtBJ,QAAQ,GAAGF,GAAG,CAACM,OAAO;MACxB;MACA/C,QAAQ,CAAC2C,QAAQ,CAAC;IACpB,CAAC,SAAS;MACR7C,UAAU,CAAC,KAAK,CAAC;IACnB;EACF,CAAC;EAED,MAAMkD,oBAAoB,GAAIC,OAAe,IAAK;IAAA,IAAAC,YAAA,EAAAC,qBAAA;IAChD,OAAO,EAAAD,YAAA,GAAAvD,MAAM,CAACyD,IAAI,CAACC,KAAK,IAAIA,KAAK,CAACC,EAAE,KAAKL,OAAO,CAAC,cAAAC,YAAA,wBAAAC,qBAAA,GAA1CD,YAAA,CAA4CK,aAAa,cAAAJ,qBAAA,uBAAzDA,qBAAA,CAA2DK,IAAI,CAACC,CAAC,IAAIA,CAAC,CAACC,OAAO,MAAKzD,IAAI,aAAJA,IAAI,uBAAJA,IAAI,CAAEqD,EAAE,EAAC,KAAI,KAAK;EAC9G,CAAC;EAED,MAAMK,cAAc,GAAIV,OAAe,IAAK;IAAA,IAAAW,aAAA;IAC1C,OAAO,EAAAA,aAAA,GAAAjE,MAAM,CAACyD,IAAI,CAACC,KAAK,IAAIA,KAAK,CAACC,EAAE,KAAKL,OAAO,CAAC,cAAAW,aAAA,uBAA1CA,aAAA,CAA4CC,YAAY,OAAK5D,IAAI,aAAJA,IAAI,uBAAJA,IAAI,CAAEqD,EAAE;EAC9E,CAAC;EAED,MAAMQ,iBAAiB,GAAG,MAAOb,OAAe,IAAK;IACnD,IAAI;MACF,MAAMhE,WAAW,CAACgE,OAAO,CAAC;MAC1BpB,WAAW,CAAC,CAAC;IACf,CAAC,CAAC,OAAO9B,KAAK,EAAE;MACd2C,OAAO,CAAC3C,KAAK,CAAC,yBAAyB,EAAEA,KAAK,CAAC;IACjD;EACF,CAAC;EAED,MAAMgE,cAAc,GAAG,MAAOd,OAAe,IAAK;IAChD,IAAI;MACF,MAAMjE,gBAAgB,CAACiE,OAAO,CAAC;MAC/BpB,WAAW,CAAC,CAAC;IACf,CAAC,CAAC,OAAO9B,KAAK,EAAE;MACd2C,OAAO,CAAC3C,KAAK,CAAC,8BAA8B,EAAEA,KAAK,CAAC;IACtD;EACF,CAAC;EAED,MAAMiE,cAAc,GAAG,MAAOf,OAAe,IAAK;IAChD,IAAI;MACF,MAAMjE,gBAAgB,CAACiE,OAAO,EAAE,IAAI,CAAC;MACrCpB,WAAW,CAAC,CAAC;IACf,CAAC,CAAC,OAAO9B,KAAK,EAAE;MACd2C,OAAO,CAAC3C,KAAK,CAAC,+BAA+B,EAAEA,KAAK,CAAC;IACvD;EACF,CAAC;EAED,MAAMkE,oBAAoB,GAAIC,QAAa,IAAK;IAC9C3C,mBAAmB,CAAC2C,QAAQ,CAAC;IAC7BnD,cAAc,CAACmD,QAAQ,CAACC,YAAY,CAAC;IACrC9C,cAAc,CAAC,KAAK,CAAC;EACvB,CAAC;EAED,MAAM+C,aAAa,GAAGhF,QAAQ,CAAC,MAAOiF,KAAa,IAAK;IACtD,IAAI,CAACA,KAAK,CAACC,IAAI,CAAC,CAAC,EAAE;MACjBrD,gBAAgB,CAAC,EAAE,CAAC;MACpBI,cAAc,CAAC,KAAK,CAAC;MACrB;IACF;IAEAF,cAAc,CAAC,IAAI,CAAC;IACpB,IAAI;MACF,MAAMoD,GAAG,GAAG,gGAAgGC,kBAAkB,CAC5HH,KACF,CAAC,0BAA0B;MAE3B,MAAMI,QAAQ,GAAG,MAAMC,KAAK,CAACH,GAAG,EAAE;QAChCI,MAAM,EAAE,KAAK;QACbC,OAAO,EAAE;UACP,iBAAiB,EAAE,gBAAgB;UACnC,YAAY,EAAE,iBAAiB;UAC/B,QAAQ,EAAE,kBAAkB;UAC5B,QAAQ,EAAEC,MAAM,CAACX,QAAQ,CAACY,MAAM;UAChC,kBAAkB,EAAE;QACtB;MACF,CAAC,CAAC;MAEF,IAAI,CAACL,QAAQ,CAACM,EAAE,EAAE;QAChB,MAAM,IAAIC,KAAK,CAAC,uBAAuBP,QAAQ,CAACQ,MAAM,EAAE,CAAC;MAC3D;MAEA,MAAMhD,IAAI,GAAG,MAAMwC,QAAQ,CAACS,IAAI,CAAC,CAAC;MAElC,IAAIjD,IAAI,IAAIkD,KAAK,CAACC,OAAO,CAACnD,IAAI,CAAC,EAAE;QAC/BhB,gBAAgB,CAACgB,IAAI,CAAC;QACtBZ,cAAc,CAAC,IAAI,CAAC;MACtB,CAAC,MAAM;QACLJ,gBAAgB,CAAC,EAAE,CAAC;QACpBI,cAAc,CAAC,KAAK,CAAC;MACvB;IACF,CAAC,CAAC,OAAOtB,KAAK,EAAE;MACd2C,OAAO,CAAC3C,KAAK,CAAC,0BAA0B,EAAEA,KAAK,CAAC;MAChDkB,gBAAgB,CAAC,EAAE,CAAC;MACpBI,cAAc,CAAC,KAAK,CAAC;IACvB,CAAC,SAAS;MACRF,cAAc,CAAC,KAAK,CAAC;IACvB;EACF,CAAC,EAAE,GAAG,CAAC;EAEPtC,SAAS,CAAC,MAAM;IACduF,aAAa,CAACtD,WAAW,CAAC;EAC5B,CAAC,EAAE,CAACA,WAAW,CAAC,CAAC;EAEjB,MAAMuE,aAAa,GAAIC,OAAsC,IAAK;IAChE/E,mBAAmB,CAACgF,IAAI,KAAK;MAC3B,GAAGA,IAAI;MACP,CAACD,OAAO,GAAG,CAACC,IAAI,CAACD,OAAO;IAC1B,CAAC,CAAC,CAAC;EACL,CAAC;EAED,MAAME,iBAAiB,GAAGA,CAACC,IAAY,EAAEC,IAAY,EAAEC,IAAY,EAAEC,IAAY,KAAK;IACpF,MAAMC,CAAC,GAAG,IAAI,CAAC,CAAC;IAChB,MAAMC,IAAI,GAAG,CAACH,IAAI,GAAGF,IAAI,IAAIM,IAAI,CAACC,EAAE,GAAG,GAAG;IAC1C,MAAMC,IAAI,GAAG,CAACL,IAAI,GAAGF,IAAI,IAAIK,IAAI,CAACC,EAAE,GAAG,GAAG;IAC1C,MAAM5D,CAAC,GACL2D,IAAI,CAACG,GAAG,CAACJ,IAAI,GAAC,CAAC,CAAC,GAAGC,IAAI,CAACG,GAAG,CAACJ,IAAI,GAAC,CAAC,CAAC,GACnCC,IAAI,CAACI,GAAG,CAACV,IAAI,GAAGM,IAAI,CAACC,EAAE,GAAG,GAAG,CAAC,GAAGD,IAAI,CAACI,GAAG,CAACR,IAAI,GAAGI,IAAI,CAACC,EAAE,GAAG,GAAG,CAAC,GAC/DD,IAAI,CAACG,GAAG,CAACD,IAAI,GAAC,CAAC,CAAC,GAAGF,IAAI,CAACG,GAAG,CAACD,IAAI,GAAC,CAAC,CAAC;IACrC,MAAMG,CAAC,GAAG,CAAC,GAAGL,IAAI,CAACM,KAAK,CAACN,IAAI,CAACO,IAAI,CAAClE,CAAC,CAAC,EAAE2D,IAAI,CAACO,IAAI,CAAC,CAAC,GAAClE,CAAC,CAAC,CAAC;IACtD,OAAOyD,CAAC,GAAGO,CAAC;EACd,CAAC;EAED,MAAMG,sBAAsB,GAAI5G,MAAe,IAAK;IAClD,IAAI,CAAC2B,gBAAgB,EAAE,OAAO3B,MAAM;IAEpC,OAAOA,MAAM,CAAC6G,MAAM,CAACnD,KAAK,IAAI;MAC5B,IAAI,CAACA,KAAK,CAACoD,QAAQ,IAAI,CAACpD,KAAK,CAACqD,SAAS,EAAE,OAAO,KAAK;MAErD,MAAMC,QAAQ,GAAGnB,iBAAiB,CAChClE,gBAAgB,CAACK,GAAG,EACpBL,gBAAgB,CAACM,GAAG,EACpByB,KAAK,CAACoD,QAAQ,EACdpD,KAAK,CAACqD,SACR,CAAC;MAED,OAAOC,QAAQ,IAAI/F,SAAS;IAC9B,CAAC,CAAC;EACJ,CAAC;EAED,MAAMgG,gBAAgB,GAAGA,CAAA,KAAM;IAC7B,MAAMC,GAAG,GAAG,IAAIvE,IAAI,CAAC,CAAC;IACtB,MAAMwE,cAAc,GAAGP,sBAAsB,CAAC5G,MAAM,CAAC;IACrD,OAAO;MACLa,QAAQ,EAAEsG,cAAc,CAACN,MAAM,CAACnD,KAAK,IAAI,IAAIf,IAAI,CAACe,KAAK,CAACd,UAAU,CAAC,IAAIsE,GAAG,IAAI,CAACxD,KAAK,CAAC0D,YAAY,CAAC;MAClGtG,IAAI,EAAEqG,cAAc,CAACN,MAAM,CAACnD,KAAK,IAAI,IAAIf,IAAI,CAACe,KAAK,CAACd,UAAU,CAAC,GAAGsE,GAAG,IAAI,CAACxD,KAAK,CAAC0D,YAAY;IAC9F,CAAC;EACH,CAAC;EAED,MAAM;IAAEvG,QAAQ;IAAEC;EAAK,CAAC,GAAGmG,gBAAgB,CAAC,CAAC;EAC7C,MAAMI,YAAY,GAAGxG,QAAQ,CAACyG,MAAM,GAAG,CAAC,IAAIxG,IAAI,CAACwG,MAAM,GAAG,CAAC;EAE3D,MAAMC,eAAe,GAAI7D,KAAY,IAAK;IAAA,IAAA8D,oBAAA;IACxC,oBACE7H,OAAA,CAACH,SAAS;MAERkE,KAAK,EAAEA,KAAM;MACb+D,UAAU,EAAEA,CAAA,KAAMrD,cAAc,CAACV,KAAK,CAACC,EAAE,CAAE;MAC3C+D,UAAU,EAAEA,CAAA,KAAMrD,cAAc,CAACX,KAAK,CAACC,EAAE,CAAE;MAC3CgE,QAAQ,EAAEA,CAAA,KAAMxD,iBAAiB,CAACT,KAAK,CAACC,EAAE,CAAE;MAC5CiE,YAAY,GAAAJ,oBAAA,GAAE9D,KAAK,CAACE,aAAa,cAAA4D,oBAAA,uBAAnBA,oBAAA,CAAqB3D,IAAI,CAACC,CAAC,IAAIA,CAAC,CAACC,OAAO,MAAKzD,IAAI,aAAJA,IAAI,uBAAJA,IAAI,CAAEqD,EAAE,EAAE;MACrEkE,SAAS,EAAEnE,KAAK,CAACQ,YAAY,MAAK5D,IAAI,aAAJA,IAAI,uBAAJA,IAAI,CAAEqD,EAAE;IAAC,GANtCD,KAAK,CAACC,EAAE;MAAAmE,QAAA,EAAAC,YAAA;MAAAC,UAAA;MAAAC,YAAA;IAAA,OAOd,CAAC;EAEN,CAAC;EAED,MAAMC,kBAAkB,GAAGA,CAACC,KAAa,EAAEnI,MAAe,EAAEoI,UAAyC,kBACnGzI,OAAA;IAAK0I,SAAS,EAAC,MAAM;IAAAC,QAAA,gBACnB3I,OAAA;MACE4I,OAAO,EAAEA,CAAA,KAAM7C,aAAa,CAAC0C,UAAU,CAAE;MACzCC,SAAS,EAAC,uHAAuH;MAAAC,QAAA,gBAEjI3I,OAAA;QAAA2I,QAAA,EAAOH;MAAK;QAAAL,QAAA,EAAAC,YAAA;QAAAC,UAAA;QAAAC,YAAA;MAAA,OAAO,CAAC,eACpBtI,OAAA;QAAM0I,SAAS,EAAC,SAAS;QAAAC,QAAA,EACtB3H,gBAAgB,CAACyH,UAAU,CAAC,GAAG,GAAG,GAAG;MAAG;QAAAN,QAAA,EAAAC,YAAA;QAAAC,UAAA;QAAAC,YAAA;MAAA,OACrC,CAAC;IAAA;MAAAH,QAAA,EAAAC,YAAA;MAAAC,UAAA;MAAAC,YAAA;IAAA,OACD,CAAC,EACRtH,gBAAgB,CAACyH,UAAU,CAAC,IAAIpI,MAAM,CAACsH,MAAM,GAAG,CAAC,gBAChD3H,OAAA;MAAK0I,SAAS,EAAC,sDAAsD;MAAAC,QAAA,EAClEtI,MAAM,CAACwI,GAAG,CAACjB,eAAe;IAAC;MAAAO,QAAA,EAAAC,YAAA;MAAAC,UAAA;MAAAC,YAAA;IAAA,OACzB,CAAC,gBAENtI,OAAA;MAAG0I,SAAS,EAAC,gCAAgC;MAAAC,QAAA,EAC1C3H,gBAAgB,CAACyH,UAAU,CAAC,GAAG,0BAA0B,GAAG;IAAE;MAAAN,QAAA,EAAAC,YAAA;MAAAC,UAAA;MAAAC,YAAA;IAAA,OAC9D,CACJ;EAAA;IAAAH,QAAA,EAAAC,YAAA;IAAAC,UAAA;IAAAC,YAAA;EAAA,OACE,CACN;EAED,MAAMQ,gBAAgB,GAAIC,CAAsC,IAAK;IACnE,MAAMC,KAAK,GAAGD,CAAC,CAACE,MAAM,CAACD,KAAK;IAC5B3H,aAAa,CAAC2H,KAAK,CAAC;IAEpB,IAAIA,KAAK,EAAE;MACT,MAAME,QAAQ,GAAG/G,eAAe,CAAC+E,MAAM,CAACiC,IAAI,IAC1CA,IAAI,CAAC/G,IAAI,CAACgH,WAAW,CAAC,CAAC,CAACC,QAAQ,CAACL,KAAK,CAACI,WAAW,CAAC,CAAC,CACtD,CAAC;MACDzH,gBAAgB,CAACuH,QAAQ,CAAC;IAC5B,CAAC,MAAM;MACLvH,gBAAgB,CAAC,EAAE,CAAC;IACtB;EACF,CAAC;EAED,oBACE3B,OAAA;IAAK0I,SAAS,EAAC,oDAAoD;IAAAC,QAAA,eACjE3I,OAAA;MAAK0I,SAAS,EAAC,mBAAmB;MAAAC,QAAA,gBAChC3I,OAAA;QAAK0I,SAAS,EAAC,mBAAmB;QAAAC,QAAA,gBAChC3I,OAAA;UAAI0I,SAAS,EAAC,iFAAiF;UAAAC,QAAA,EAAC;QAEhG;UAAAR,QAAA,EAAAC,YAAA;UAAAC,UAAA;UAAAC,YAAA;QAAA,OAAI,CAAC,eACLtI,OAAA;UAAG0I,SAAS,EAAC,6CAA6C;UAAAC,QAAA,EACvD3G,gBAAgB,GAAG,iBAAiBV,SAAS,aAAaU,gBAAgB,CAAC6C,YAAY,EAAE,GAAG;QAAwC;UAAAsD,QAAA,EAAAC,YAAA;UAAAC,UAAA;UAAAC,YAAA;QAAA,OACpI,CAAC;MAAA;QAAAH,QAAA,EAAAC,YAAA;QAAAC,UAAA;QAAAC,YAAA;MAAA,OACD,CAAC,eAGNtI,OAAA;QAAK0I,SAAS,EAAC,8BAA8B;QAAAC,QAAA,eAC3C3I,OAAA;UAAK0I,SAAS,EAAC,6DAA6D;UAAAC,QAAA,gBAC1E3I,OAAA;YAAK0I,SAAS,EAAC,0BAA0B;YAAAC,QAAA,gBACvC3I,OAAA;cACEsJ,IAAI,EAAC,MAAM;cACXN,KAAK,EAAExH,WAAY;cACnB+H,QAAQ,EAAGR,CAAC,IAAKtH,cAAc,CAACsH,CAAC,CAACE,MAAM,CAACD,KAAK,CAAE;cAChDQ,WAAW,EAAC,gCAAgC;cAC5Cd,SAAS,EAAC;YAA2G;cAAAP,QAAA,EAAAC,YAAA;cAAAC,UAAA;cAAAC,YAAA;YAAA,OACtH,CAAC,EACD1G,WAAW,iBACV5B,OAAA;cAAK0I,SAAS,EAAC,wBAAwB;cAAAC,QAAA,eACrC3I,OAAA;gBAAK0I,SAAS,EAAC;cAA8D;gBAAAP,QAAA,EAAAC,YAAA;gBAAAC,UAAA;gBAAAC,YAAA;cAAA,OAAM;YAAC;cAAAH,QAAA,EAAAC,YAAA;cAAAC,UAAA;cAAAC,YAAA;YAAA,OACjF,CACN,EACAxG,WAAW,IAAIJ,aAAa,CAACiG,MAAM,GAAG,CAAC,iBACtC3H,OAAA;cAAK0I,SAAS,EAAC,yDAAyD;cAAAC,QAAA,eACtE3I,OAAA;gBAAI0I,SAAS,EAAC,gFAAgF;gBAAAC,QAAA,EAC3FjH,aAAa,CAACmH,GAAG,CAAEY,MAAM,iBACxBzJ,OAAA;kBAEE0I,SAAS,EAAC,qEAAqE;kBAC/EE,OAAO,EAAEA,CAAA,KAAMjE,oBAAoB,CAAC8E,MAAM,CAAE;kBAAAd,QAAA,eAE5C3I,OAAA;oBAAK0I,SAAS,EAAC,mBAAmB;oBAAAC,QAAA,eAChC3I,OAAA;sBAAM0I,SAAS,EAAC,eAAe;sBAAAC,QAAA,EAAEc,MAAM,CAAC5E;oBAAY;sBAAAsD,QAAA,EAAAC,YAAA;sBAAAC,UAAA;sBAAAC,YAAA;oBAAA,OAAO;kBAAC;oBAAAH,QAAA,EAAAC,YAAA;oBAAAC,UAAA;oBAAAC,YAAA;kBAAA,OACzD;gBAAC,GANDmB,MAAM,CAACC,QAAQ;kBAAAvB,QAAA,EAAAC,YAAA;kBAAAC,UAAA;kBAAAC,YAAA;gBAAA,OAOlB,CACL;cAAC;gBAAAH,QAAA,EAAAC,YAAA;gBAAAC,UAAA;gBAAAC,YAAA;cAAA,OACA;YAAC;cAAAH,QAAA,EAAAC,YAAA;cAAAC,UAAA;cAAAC,YAAA;YAAA,OACF,CACN;UAAA;YAAAH,QAAA,EAAAC,YAAA;YAAAC,UAAA;YAAAC,YAAA;UAAA,OACE,CAAC,eACNtI,OAAA;YAAK0I,SAAS,EAAC,uCAAuC;YAAAC,QAAA,gBACpD3I,OAAA;cACEsJ,IAAI,EAAC,OAAO;cACZK,GAAG,EAAC,GAAG;cACPC,GAAG,EAAC,KAAK;cACTZ,KAAK,EAAE1H,SAAU;cACjBiI,QAAQ,EAAGR,CAAC,IAAKxH,YAAY,CAACsI,MAAM,CAACd,CAAC,CAACE,MAAM,CAACD,KAAK,CAAC,CAAE;cACtDN,SAAS,EAAC,0jBAA0jB;cACpkBoB,KAAK,EAAE;gBACLC,UAAU,EAAE,iDAAiD,CAACzI,SAAS,GAAG,CAAC,KAAK,GAAG,GAAG,EAAE,CAAC,cAAc,CAACA,SAAS,GAAG,CAAC,KAAK,GAAG,GAAG,EAAE,CAAC;cACrI;YAAE;cAAA6G,QAAA,EAAAC,YAAA;cAAAC,UAAA;cAAAC,YAAA;YAAA,OACH,CAAC,eACFtI,OAAA;cAAM0I,SAAS,EAAC,sDAAsD;cAAAC,QAAA,GAAErH,SAAS,EAAC,QAAM;YAAA;cAAA6G,QAAA,EAAAC,YAAA;cAAAC,UAAA;cAAAC,YAAA;YAAA,OAAM,CAAC;UAAA;YAAAH,QAAA,EAAAC,YAAA;YAAAC,UAAA;YAAAC,YAAA;UAAA,OAC5F,CAAC;QAAA;UAAAH,QAAA,EAAAC,YAAA;UAAAC,UAAA;UAAAC,YAAA;QAAA,OACH;MAAC;QAAAH,QAAA,EAAAC,YAAA;QAAAC,UAAA;QAAAC,YAAA;MAAA,OACH,CAAC,EAGLtG,gBAAgB,gBACfhC,OAAA,CAAAE,SAAA;QAAAyI,QAAA,EACGjB,YAAY,gBACX1H,OAAA;UAAK0I,SAAS,EAAC,YAAY;UAAAC,QAAA,GACxBzH,QAAQ,CAACyG,MAAM,GAAG,CAAC,iBAClB3H,OAAA;YAAA2I,QAAA,gBACE3I,OAAA;cAAI0I,SAAS,EAAC,uCAAuC;cAAAC,QAAA,EAAC;YAAe;cAAAR,QAAA,EAAAC,YAAA;cAAAC,UAAA;cAAAC,YAAA;YAAA,OAAI,CAAC,eAC1EtI,OAAA;cAAK0I,SAAS,EAAC,0CAA0C;cAAAC,QAAA,EACtDzH,QAAQ,CAAC2H,GAAG,CAAE9E,KAAK;gBAAA,IAAAiG,qBAAA;gBAAA,oBAClBhK,OAAA,CAACH,SAAS;kBAERkE,KAAK,EAAEA,KAAM;kBACb+D,UAAU,EAAEA,CAAA,KAAMrD,cAAc,CAACV,KAAK,CAACC,EAAE,CAAE;kBAC3C+D,UAAU,EAAEA,CAAA,KAAMrD,cAAc,CAACX,KAAK,CAACC,EAAE,CAAE;kBAC3CgE,QAAQ,EAAEA,CAAA,KAAMxD,iBAAiB,CAACT,KAAK,CAACC,EAAE,CAAE;kBAC5CiE,YAAY,GAAA+B,qBAAA,GAAEjG,KAAK,CAACE,aAAa,cAAA+F,qBAAA,uBAAnBA,qBAAA,CAAqB9F,IAAI,CAACC,CAAC,IAAIA,CAAC,CAACC,OAAO,MAAKzD,IAAI,aAAJA,IAAI,uBAAJA,IAAI,CAAEqD,EAAE,EAAE;kBACrEkE,SAAS,EAAEnE,KAAK,CAACQ,YAAY,MAAK5D,IAAI,aAAJA,IAAI,uBAAJA,IAAI,CAAEqD,EAAE;gBAAC,GANtCD,KAAK,CAACC,EAAE;kBAAAmE,QAAA,EAAAC,YAAA;kBAAAC,UAAA;kBAAAC,YAAA;gBAAA,OAOd,CAAC;cAAA,CACH;YAAC;cAAAH,QAAA,EAAAC,YAAA;cAAAC,UAAA;cAAAC,YAAA;YAAA,OACC,CAAC;UAAA;YAAAH,QAAA,EAAAC,YAAA;YAAAC,UAAA;YAAAC,YAAA;UAAA,OACH,CACN,EAEAnH,IAAI,CAACwG,MAAM,GAAG,CAAC,iBACd3H,OAAA;YAAA2I,QAAA,gBACE3I,OAAA;cAAI0I,SAAS,EAAC,uCAAuC;cAAAC,QAAA,EAAC;YAAW;cAAAR,QAAA,EAAAC,YAAA;cAAAC,UAAA;cAAAC,YAAA;YAAA,OAAI,CAAC,eACtEtI,OAAA;cAAK0I,SAAS,EAAC,0CAA0C;cAAAC,QAAA,EACtDxH,IAAI,CAAC0H,GAAG,CAAE9E,KAAK;gBAAA,IAAAkG,qBAAA;gBAAA,oBACdjK,OAAA,CAACH,SAAS;kBAERkE,KAAK,EAAEA,KAAM;kBACb+D,UAAU,EAAEA,CAAA,KAAMrD,cAAc,CAACV,KAAK,CAACC,EAAE,CAAE;kBAC3C+D,UAAU,EAAEA,CAAA,KAAMrD,cAAc,CAACX,KAAK,CAACC,EAAE,CAAE;kBAC3CgE,QAAQ,EAAEA,CAAA,KAAMxD,iBAAiB,CAACT,KAAK,CAACC,EAAE,CAAE;kBAC5CiE,YAAY,GAAAgC,qBAAA,GAAElG,KAAK,CAACE,aAAa,cAAAgG,qBAAA,uBAAnBA,qBAAA,CAAqB/F,IAAI,CAACC,CAAC,IAAIA,CAAC,CAACC,OAAO,MAAKzD,IAAI,aAAJA,IAAI,uBAAJA,IAAI,CAAEqD,EAAE,EAAE;kBACrEkE,SAAS,EAAEnE,KAAK,CAACQ,YAAY,MAAK5D,IAAI,aAAJA,IAAI,uBAAJA,IAAI,CAAEqD,EAAE;gBAAC,GANtCD,KAAK,CAACC,EAAE;kBAAAmE,QAAA,EAAAC,YAAA;kBAAAC,UAAA;kBAAAC,YAAA;gBAAA,OAOd,CAAC;cAAA,CACH;YAAC;cAAAH,QAAA,EAAAC,YAAA;cAAAC,UAAA;cAAAC,YAAA;YAAA,OACC,CAAC;UAAA;YAAAH,QAAA,EAAAC,YAAA;YAAAC,UAAA;YAAAC,YAAA;UAAA,OACH,CACN;QAAA;UAAAH,QAAA,EAAAC,YAAA;UAAAC,UAAA;UAAAC,YAAA;QAAA,OACE,CAAC,gBAENtI,OAAA;UAAK0I,SAAS,EAAC,mBAAmB;UAAAC,QAAA,eAChC3I,OAAA;YAAG0I,SAAS,EAAC,uBAAuB;YAAAC,QAAA,EAAC;UAA4B;YAAAR,QAAA,EAAAC,YAAA;YAAAC,UAAA;YAAAC,YAAA;UAAA,OAAG;QAAC;UAAAH,QAAA,EAAAC,YAAA;UAAAC,UAAA;UAAAC,YAAA;QAAA,OAClE;MACN,gBACD,CAAC,gBAEHtI,OAAA;QAAK0I,SAAS,EAAC,mBAAmB;QAAAC,QAAA,eAChC3I,OAAA;UAAG0I,SAAS,EAAC,uBAAuB;UAAAC,QAAA,EAAC;QAAuC;UAAAR,QAAA,EAAAC,YAAA;UAAAC,UAAA;UAAAC,YAAA;QAAA,OAAG;MAAC;QAAAH,QAAA,EAAAC,YAAA;QAAAC,UAAA;QAAAC,YAAA;MAAA,OAC7E,CACN;IAAA;MAAAH,QAAA,EAAAC,YAAA;MAAAC,UAAA;MAAAC,YAAA;IAAA,OACE;EAAC;IAAAH,QAAA,EAAAC,YAAA;IAAAC,UAAA;IAAAC,YAAA;EAAA,OACH,CAAC;AAEV,CAAC;AAAClI,EAAA,CAjeID,SAAmB;EAAA,QAINP,OAAO,EAcPJ,WAAW;AAAA;AAAA0K,EAAA,GAlBxB/J,SAAmB;AAmezB,eAAeA,SAAS;AAAC,IAAA+J,EAAA;AAAAC,YAAA,CAAAD,EAAA","ignoreList":[]},"metadata":{},"sourceType":"module","externalDependencies":[]}